{
"type": "FeatureCollection",
"name": "Locais_de_Refer%C3%AAncia",
"crs": { "type": "name", "properties": { "name": "urn:ogc:def:crs:OGC:1.3:CRS84" } },
"features": [
{ "type": "Feature", "properties": { "OBJECTID": 1, "Nome": "Tunel Zuzu Angel", "Descricao": "Túnel de ligação entre os Bairros da Gávea e São Conrado.", "Endereco": " ", "Categoria": null }, "geometry": { "type": "Point", "coordinates": [ -43.247457569097207, -22.992584072699991 ] } },
{ "type": "Feature", "properties": { "OBJECTID": 2, "Nome": "Pedra dos Dois Irmãos", "Descricao": "Monumento natural do Rio composto por 2 penhascos rochosos entre os bairros do Leblon, Rocinha e São Conrado - 539 m de altitude.", "Endereco": " ", "Categoria": null }, "geometry": { "type": "Point", "coordinates": [ -43.239397386786116, -22.99084246826407 ] } },
{ "type": "Feature", "properties": { "OBJECTID": 3, "Nome": "Parque da Cidade", "Descricao": "São 160 mil metros quadrados de grama e diversas trilhas mergulhadas na Mata Atlântica. No parque está instalado o Museu Histórico da Cidade. Estrada de Santa Marinha, 505 - Gávea - Tel. 2512-5223 - Aberto diariamente das 7 às 19h.", "Endereco": " ", "Categoria": null }, "geometry": { "type": "Point", "coordinates": [ -43.244992082408487, -22.978076728151855 ] } },
{ "type": "Feature", "properties": { "OBJECTID": 4, "Nome": "Vista Chinesa", "Descricao": "Mirante em estilo oriental a 318 metros de altura. Ponto turístico do Rio de Janeiro localizada no Parque Nacional da Tijuca - Alto da Boa Vista.", "Endereco": " ", "Categoria": null }, "geometry": { "type": "Point", "coordinates": [ -43.249414975488399, -22.973247997681465 ] } },
{ "type": "Feature", "properties": { "OBJECTID": 5, "Nome": "Mesa do Imperador", "Descricao": "Mirante com bela vista da Lagoa Rodrigo de Freitas e Zona Sul - 485 m de altitude com mesa e piso de pedras - Cartão postal do Parque Nacional da Tijuca.", "Endereco": " ", "Categoria": null }, "geometry": { "type": "Point", "coordinates": [ -43.255858214597794, -22.970554825768481 ] } },
{ "type": "Feature", "properties": { "OBJECTID": 6, "Nome": "Morro do Cochrane", "Descricao": "Elevação revestida por florestas - 718 m de altitude.", "Endereco": " ", "Categoria": null }, "geometry": { "type": "Point", "coordinates": [ -43.263759928001271, -22.98203269982778 ] } },
{ "type": "Feature", "properties": { "OBJECTID": 7, "Nome": "Pedra Bonita", "Descricao": "Elevação rochosa com bordas escarpadas defronte a Pedra da Gávea, com lindo panorama da Zona Sule Barra - acesso por trilha - 693 m de altitude.", "Endereco": " ", "Categoria": null }, "geometry": { "type": "Point", "coordinates": [ -43.283836047184408, -22.989248632276681 ] } },
{ "type": "Feature", "properties": { "OBJECTID": 8, "Nome": "Pedra da Gávea", "Descricao": "Gigantesco monolito de pedra tendo o cume em formato de mesa - paraíso dos excursionistas com 844 m de altitude.", "Endereco": " ", "Categoria": null }, "geometry": { "type": "Point", "coordinates": [ -43.283863914303986, -22.997669180420925 ] } },
{ "type": "Feature", "properties": { "OBJECTID": 9, "Nome": "Ponta do Marisco", "Descricao": "Acidente litorâneo no Morro da Joatinga, ocupado pelo Clube Costa Brava.", "Endereco": " ", "Categoria": null }, "geometry": { "type": "Point", "coordinates": [ -43.286230995080693, -23.015352447384455 ] } },
{ "type": "Feature", "properties": { "OBJECTID": 10, "Nome": "Túnel do Joá", "Descricao": "Auto estrada Lagoa-Barra, perfurando o Morro da Joatinga - acesso para a Barra da Tijuca.", "Endereco": " ", "Categoria": null }, "geometry": { "type": "Point", "coordinates": [ -43.289264111671187, -23.010713269769969 ] } },
{ "type": "Feature", "properties": { "OBJECTID": 11, "Nome": "Joatinga", "Descricao": "Localidade e Morro no bairro do Joá - condomínio de mansões, clube Costa Brava e Praia da Joatinga.", "Endereco": " ", "Categoria": null }, "geometry": { "type": "Point", "coordinates": [ -43.292364248607093, -23.011404021453167 ] } },
{ "type": "Feature", "properties": { "OBJECTID": 12, "Nome": "Quebramar", "Descricao": "Pier com deck junto a saída do Canal da Barra da Tijuca - Ponto Turístico", "Endereco": " ", "Categoria": null }, "geometry": { "type": "Point", "coordinates": [ -43.297878798073832, -23.015442614636083 ] } },
{ "type": "Feature", "properties": { "OBJECTID": 13, "Nome": "Barrinha", "Descricao": "Localidade da Barra - Primeiro Núcleo Residencial da Barra.", "Endereco": " ", "Categoria": null }, "geometry": { "type": "Point", "coordinates": [ -43.2972042471105, -23.008027653838393 ] } },
{ "type": "Feature", "properties": { "OBJECTID": 14, "Nome": "Jardim Oceânico", "Descricao": "Loteamento que deu origem ao Núcleo da Barra da Tijuca - residências multi-familiares de alto poder aquisitivo.", "Endereco": " ", "Categoria": null }, "geometry": { "type": "Point", "coordinates": [ -43.314600900613371, -23.010274488295185 ] } },
{ "type": "Feature", "properties": { "OBJECTID": 15, "Nome": "Shopping Downtown", "Descricao": "Shopping Center localizado na Av. Das Américas, 500 - Barra da Tijuca - Tel. 2494-7072 - Aberto diariamente das 10h às 22h.", "Endereco": " ", "Categoria": null }, "geometry": { "type": "Point", "coordinates": [ -43.317118847338776, -23.003763971651836 ] } },
{ "type": "Feature", "properties": { "OBJECTID": 16, "Nome": "Ilha da Gigóia", "Descricao": "Ilha na lagoa da Tijuca e totalmente ocupada por residências - acesso só de barco.", "Endereco": " ", "Categoria": null }, "geometry": { "type": "Point", "coordinates": [ -43.3091048996098, -23.003181188474297 ] } },
{ "type": "Feature", "properties": { "OBJECTID": 17, "Nome": "Ilha Primeira", "Descricao": "Ilha na lagoa da Tijuca ocupada por residências e próxima ao Itanhangá Golf Clube.", "Endereco": " ", "Categoria": null }, "geometry": { "type": "Point", "coordinates": [ -43.309010430742362, -22.999982591181592 ] } },
{ "type": "Feature", "properties": { "OBJECTID": 18, "Nome": "Itanhangá Golf Club", "Descricao": "Grande área verde entre a lagoa da Tijuca - Rio Itanhangá e Estrada da Barra - Clube de Golf.", "Endereco": " ", "Categoria": null }, "geometry": { "type": "Point", "coordinates": [ -43.306449142995547, -22.993027114788461 ] } },
{ "type": "Feature", "properties": { "OBJECTID": 19, "Nome": "Pedra do Itanhangá", "Descricao": "Elevação rochosa junto a lagoa da Tijuca no Itanhangá - 212 m de altitude.", "Endereco": " ", "Categoria": null }, "geometry": { "type": "Point", "coordinates": [ -43.31345423407236, -22.99445195770237 ] } },
{ "type": "Feature", "properties": { "OBJECTID": 20, "Nome": "Jardim da Barra", "Descricao": "Conjunto de Condomínios entre o Itanhangá Golf Club e a Pedra da Gávea - terminando em reserva florestal.", "Endereco": " ", "Categoria": null }, "geometry": { "type": "Point", "coordinates": [ -43.298735160760273, -22.992392643248184 ] } },
{ "type": "Feature", "properties": { "OBJECTID": 21, "Nome": "Taquara da Tijuca", "Descricao": "Localidade do Alto da Boa Vista no final da Estrada da Paz - acesso ao Vale Encantado e Morro da Taquara.", "Endereco": " ", "Categoria": null }, "geometry": { "type": "Point", "coordinates": [ -43.294540854849956, -22.969147923770755 ] } },
{ "type": "Feature", "properties": { "OBJECTID": 22, "Nome": "Morro da Taquara", "Descricao": "Elevação da Floresta da Tijuca - acesso por trilha , mirantes para alto da Boa Vista e bairro da Tijuca - 811 m de altitude.", "Endereco": " ", "Categoria": null }, "geometry": { "type": "Point", "coordinates": [ -43.30461284926681, -22.968225811829512 ] } },
{ "type": "Feature", "properties": { "OBJECTID": 23, "Nome": "Gávea Pequena", "Descricao": "Localidade e floresta entre a serra da Carioca e o Morro do Crochne - onde fica a residência do prefeito.", "Endereco": " ", "Categoria": null }, "geometry": { "type": "Point", "coordinates": [ -43.27902270122209, -22.975700757232868 ] } },
{ "type": "Feature", "properties": { "OBJECTID": 24, "Nome": "Gávea Golf Club", "Descricao": "Grande área verde onde existiu a fazenda do Niemeyer até o sopé do morro do Cochrane - hoje Clube de Golf.", "Endereco": " ", "Categoria": null }, "geometry": { "type": "Point", "coordinates": [ -43.265587727695838, -22.995725642750447 ] } },
{ "type": "Feature", "properties": { "OBJECTID": 25, "Nome": "Jardim Gávea", "Descricao": "Condomínio nas encostas da Serra do Cochrane, na sua parte baixa próxima a Rocinha.", "Endereco": " ", "Categoria": null }, "geometry": { "type": "Point", "coordinates": [ -43.259634996492075, -22.993514425315894 ] } },
{ "type": "Feature", "properties": { "OBJECTID": 26, "Nome": "Oceano Atlântico", "Descricao": "Oceano que banha o litoral da cidade do Rio de Janeiro.", "Endereco": " ", "Categoria": null }, "geometry": { "type": "Point", "coordinates": [ -43.256966133625134, -23.007950816038949 ] } },
{ "type": "Feature", "properties": { "OBJECTID": 27, "Nome": "Horto", "Descricao": "Localidade e Área Florestal do Ibama, junto ao Vale dos Macacos - Bairro do Jardim Botânico", "Endereco": " ", "Categoria": null }, "geometry": { "type": "Point", "coordinates": [ -43.233726459859966, -22.967656771329377 ] } },
{ "type": "Feature", "properties": { "OBJECTID": 28, "Nome": "Muzema", "Descricao": "Localidade no bairro do Itanhangá, ocupado por diversas favelas junto a estrada de Jacarepaguá e Joatinga.", "Endereco": " ", "Categoria": null }, "geometry": { "type": "Point", "coordinates": [ -43.320573579609267, -22.989266699224547 ] } },
{ "type": "Feature", "properties": { "OBJECTID": 29, "Nome": "Morro Queimado", "Descricao": "Elevação da Serra da Carioca atingida por trilha, onde se vê lindo panorama da Lagoa, Zona Sul e Pedra da Gávea - 714 m de altitude.", "Endereco": " ", "Categoria": null }, "geometry": { "type": "Point", "coordinates": [ -43.257427471852651, -22.963703195069328 ] } },
{ "type": "Feature", "properties": { "OBJECTID": 30, "Nome": "Morro do Inácio Dias", "Descricao": "Elevação com encostas desmatadas e pedregosas voltadas para Piedade e Quintino - Floresta da Covanca voltada para Jacarepaguá - 449 m de altitude.", "Endereco": " ", "Categoria": null }, "geometry": { "type": "Point", "coordinates": [ -43.329487371672755, -22.904515152867393 ] } },
{ "type": "Feature", "properties": { "OBJECTID": 31, "Nome": "Túnel Engenheiro Raimundo de Paula Soares", "Descricao": "Túnel da Covanca - maior túnel urbano do mundo perfurando a Serra dos Pretos Forros - trecho da linha Amarela entre Jacarapaguá e Água Santa.", "Endereco": " ", "Categoria": null }, "geometry": { "type": "Point", "coordinates": [ -43.321841288496259, -22.917068596054563 ] } },
{ "type": "Feature", "properties": { "OBJECTID": 32, "Nome": "Hospital D. Pedro II", "Descricao": "Hospital Psiquiátrico entre o Encantado e Engenho de Dentro.", "Endereco": " ", "Categoria": null }, "geometry": { "type": "Point", "coordinates": [ -43.301285372682706, -22.902383996150956 ] } },
{ "type": "Feature", "properties": { "OBJECTID": 33, "Nome": "Engenhão", "Descricao": "Estádio Olímpico João Havelange. Rua Arquias Cordeiro, 1046 - Engenho de Dentro", "Endereco": " ", "Categoria": null }, "geometry": { "type": "Point", "coordinates": [ -43.293211955415892, -22.893952895185222 ] } },
{ "type": "Feature", "properties": { "OBJECTID": 34, "Nome": "Norte Shopping", "Descricao": "Shopping Center localizado em Del Castilho. Av. Dom Helder Câmara, 5474. Telefone 3089-4444. Aberto de Segunda a Sábado das 11 às 22 horas. Domingo de 15 às 21 horas.", "Endereco": " ", "Categoria": null }, "geometry": { "type": "Point", "coordinates": [ -43.283188880757415, -22.886292082955528 ] } },
{ "type": "Feature", "properties": { "OBJECTID": 35, "Nome": "Cemitério de Inhaúma", "Descricao": "Cemitério localizado na Av. Pastor Martin Luther King Junior em Inhaúma.", "Endereco": " ", "Categoria": null }, "geometry": { "type": "Point", "coordinates": [ -43.281434490888891, -22.877640418782637 ] } },
{ "type": "Feature", "properties": { "OBJECTID": 36, "Nome": "Nova América Outlet Shopping", "Descricao": "Localizado na antiga fábrica de tecidos em Del Castilho. Av. Pastor Martin Luther King,126. Telefone 3083-1000.", "Endereco": " ", "Categoria": null }, "geometry": { "type": "Point", "coordinates": [ -43.271938643110012, -22.877537503116816 ] } },
{ "type": "Feature", "properties": { "OBJECTID": 37, "Nome": "Morro do Engenho da Rainha", "Descricao": "Favela e elevação entre Inhaúma e Engenho da Rainha - 120 m de altitude.", "Endereco": " ", "Categoria": null }, "geometry": { "type": "Point", "coordinates": [ -43.291869514347042, -22.873005073363018 ] } },
{ "type": "Feature", "properties": { "OBJECTID": 38, "Nome": "Morro dos Urubus", "Descricao": "Elevação entre o Leme e a Praia Vermelha - 126 m de altitude.", "Endereco": " ", "Categoria": null }, "geometry": { "type": "Point", "coordinates": [ -43.304055054566675, -22.877379739293822 ] } },
{ "type": "Feature", "properties": { "OBJECTID": 39, "Nome": "Morro do Dendê", "Descricao": "Elevação com reflorestamento entre Engenho Leal, Madureira e Cavalcanti - 213 m de altitude.", "Endereco": " ", "Categoria": null }, "geometry": { "type": "Point", "coordinates": [ -43.325069478746826, -22.870936320185418 ] } },
{ "type": "Feature", "properties": { "OBJECTID": 40, "Nome": "Morro da Serrinha", "Descricao": "Morro onde fica localizada a Favela da Serrinha.", "Endereco": " ", "Categoria": null }, "geometry": { "type": "Point", "coordinates": [ -43.323128748586797, -22.86460939183419 ] } },
{ "type": "Feature", "properties": { "OBJECTID": 41, "Nome": "Morro do Juramento", "Descricao": "Favela e elevação junto a garganta de Tomás Coelho, entre Vicente de Carvalho e Av. Automóvel Clube - 247 m de altitude.", "Endereco": " ", "Categoria": null }, "geometry": { "type": "Point", "coordinates": [ -43.314416730822408, -22.861855655853372 ] } },
{ "type": "Feature", "properties": { "OBJECTID": 42, "Nome": "Shopping Center do Méier", "Descricao": "Primeiro Shopping da cidade do Rio de Janeiro localizado no bairro do Méier - Rua Dias da Cruz.", "Endereco": " ", "Categoria": null }, "geometry": { "type": "Point", "coordinates": [ -43.283394791869974, -22.903863069909285 ] } },
{ "type": "Feature", "properties": { "OBJECTID": 43, "Nome": "Serra do Engenho Novo", "Descricao": "Elevações situadas entre Vila Isabel, Engenho Novo e Riachuelo com grandes favelas nas encostas - 200 m de altitude.", "Endereco": " ", "Categoria": null }, "geometry": { "type": "Point", "coordinates": [ -43.26123036549572, -22.909205611711151 ] } },
{ "type": "Feature", "properties": { "OBJECTID": 44, "Nome": "Morro da Bica", "Descricao": "Elevação ocupada pela área residencial do Jardim Guanabara - Ilha do Governador.", "Endereco": " ", "Categoria": null }, "geometry": { "type": "Point", "coordinates": [ -43.338866398151694, -22.889542532023619 ] } },
{ "type": "Feature", "properties": { "OBJECTID": 45, "Nome": "CEI de Quintino", "Descricao": "Centro Escolar localizado na Rua Clarimundo de Melo até o sopé da Serra do Inácio Dias.", "Endereco": " ", "Categoria": null }, "geometry": { "type": "Point", "coordinates": [ -43.325670744090012, -22.893948228086693 ] } },
{ "type": "Feature", "properties": { "OBJECTID": 46, "Nome": "Madureira Shopping Rio", "Descricao": "Shopping Center localizado na Estrada do Portela, 222 - Madureira - Tel. 2488-1342 - Aberto de Seg. a Sab. Das 10h-22h e Dom 12h-21h.", "Endereco": " ", "Categoria": null }, "geometry": { "type": "Point", "coordinates": [ -43.341057967140799, -22.870585230624876 ] } },
{ "type": "Feature", "properties": { "OBJECTID": 47, "Nome": "Serra da Misericórdia", "Descricao": "Conjunto de elevações com altitudes máximas de 280 m compreendendo os bairros de Inhaúma, Olaria, Penha, Ramos, etc. - possui o imenso Complexo do Alemão e enormes pedreiras no bairro de Inhaúma.", "Endereco": " ", "Categoria": null }, "geometry": { "type": "Point", "coordinates": [ -43.292772190672629, -22.857793363954389 ] } },
{ "type": "Feature", "properties": { "OBJECTID": 48, "Nome": "Floresta da Covanca", "Descricao": "Importante Reserva Florestal entre a Serra do Inácio Dias e a Serra dos Pretos - acesso pelo bairro do Tanque.", "Endereco": " ", "Categoria": null }, "geometry": { "type": "Point", "coordinates": [ -43.330656172572738, -22.912744403533619 ] } },
{ "type": "Feature", "properties": { "OBJECTID": 49, "Nome": "Jacarezinho", "Descricao": "Favela de grande extensão - XXVIII RA.", "Endereco": " ", "Categoria": null }, "geometry": { "type": "Point", "coordinates": [ -43.260373954685129, -22.888294099804153 ] } },
{ "type": "Feature", "properties": { "OBJECTID": 50, "Nome": "Morro do Sapê", "Descricao": "Favela e elevação com reflorestamento entre Turiaçú e Vaz Lobo - 163 m de altitude.", "Endereco": " ", "Categoria": null }, "geometry": { "type": "Point", "coordinates": [ -43.337196472301507, -22.856123785458468 ] } },
{ "type": "Feature", "properties": { "OBJECTID": 51, "Nome": "Largo de Vaz de Lobo", "Descricao": "Largo na junção da Av. Min. Edgard Romero, Estrada Vicente de Carvalho e Av. Rubens Félix - Vaz Lobo.", "Endereco": " ", "Categoria": null }, "geometry": { "type": "Point", "coordinates": [ -43.329057225932281, -22.856866326688429 ] } },
{ "type": "Feature", "properties": { "OBJECTID": 52, "Nome": "Túnel Enaldo Cravo Peixoto", "Descricao": "Linha Amarela no Morro do Pau Ferro - Freguesia.", "Endereco": " ", "Categoria": null }, "geometry": { "type": "Point", "coordinates": [ -43.345631710661429, -22.933973614666925 ] } },
{ "type": "Feature", "properties": { "OBJECTID": 53, "Nome": "Túnel Enzo Totis", "Descricao": "Linha Amarela no Morro do Pau Ferro - Freguesia.", "Endereco": " ", "Categoria": null }, "geometry": { "type": "Point", "coordinates": [ -43.344029874935089, -22.930655159854211 ] } },
{ "type": "Feature", "properties": { "OBJECTID": 54, "Nome": "Morro da Freguesia", "Descricao": "Elevação que abriga no cume a Igreja de N. S. da Penha na Freguesia - Altitude 153 m.", "Endereco": " ", "Categoria": null }, "geometry": { "type": "Point", "coordinates": [ -43.348123465128886, -22.941530532376799 ] } },
{ "type": "Feature", "properties": { "OBJECTID": 55, "Nome": "Bosque da Freguesia", "Descricao": "Parque Público - Antiga fazenda Catramby - Reserva Florestal.", "Endereco": " ", "Categoria": null }, "geometry": { "type": "Point", "coordinates": [ -43.343731530211876, -22.948261924622965 ] } },
{ "type": "Feature", "properties": { "OBJECTID": 56, "Nome": "Rio Shopping", "Descricao": "Shopping Center com acesso pela Estrada do Gabinal na Freguesia - Jacarepaguá.", "Endereco": " ", "Categoria": null }, "geometry": { "type": "Point", "coordinates": [ -43.344805725094588, -22.94306949387213 ] } },
{ "type": "Feature", "properties": { "OBJECTID": 57, "Nome": "Condomínio Eldorado", "Descricao": "Parque Residencial na Freguesia - Junto a Pedra de São Francisco.", "Endereco": " ", "Categoria": null }, "geometry": { "type": "Point", "coordinates": [ -43.329915098476178, -22.9461816857226 ] } },
{ "type": "Feature", "properties": { "OBJECTID": 58, "Nome": "Serra do Urubu", "Descricao": "Floresta da Colônia em Jacarepaguá.", "Endereco": " ", "Categoria": null }, "geometry": { "type": "Point", "coordinates": [ -43.404467417076205, -22.944948780667989 ] } },
{ "type": "Feature", "properties": { "OBJECTID": 59, "Nome": "Morro Dois Irmãos", "Descricao": "Elevação entre Curicica e o Projac - 246 m de altitude.", "Endereco": " ", "Categoria": null }, "geometry": { "type": "Point", "coordinates": [ -43.400099445374131, -22.952616799169601 ] } },
{ "type": "Feature", "properties": { "OBJECTID": 60, "Nome": "Parque Dois Irmãos", "Descricao": "Parque Sérgio Bernardes - sua referência é a Pedra Dois Irmãos - Criado em 1992, possui mirantes com lindos panoramas e equipamentos de lazer.", "Endereco": " ", "Categoria": null }, "geometry": { "type": "Point", "coordinates": [ -43.393188462685167, -22.951579159300053 ] } },
{ "type": "Feature", "properties": { "OBJECTID": 61, "Nome": "Colônia Juliano Moreira", "Descricao": "Complexo de Hospitais para doentes mentais - Obras de Patrimônio Histórico - Reserva Florestal.", "Endereco": " ", "Categoria": null }, "geometry": { "type": "Point", "coordinates": [ -43.40152779718666, -22.939445169735173 ] } },
{ "type": "Feature", "properties": { "OBJECTID": 62, "Nome": "Outeiro Santo", "Descricao": "Elevação na estrada da Colônia Juliano moreira em Jacarepaguá - 84 m de altitude.", "Endereco": " ", "Categoria": null }, "geometry": { "type": "Point", "coordinates": [ -43.396256592089287, -22.932315080027447 ] } },
{ "type": "Feature", "properties": { "OBJECTID": 63, "Nome": "Parque Curicica", "Descricao": "Loteamento que compõe o bairro da Curicica.", "Endereco": " ", "Categoria": null }, "geometry": { "type": "Point", "coordinates": [ -43.382109048502677, -22.944087248432478 ] } },
{ "type": "Feature", "properties": { "OBJECTID": 64, "Nome": "Zona Industrial de Jacarepaguá", "Descricao": "Área industrial entre o Rio Guerenguê e a Estrada dos Bandeirantes - Taquara.", "Endereco": " ", "Categoria": null }, "geometry": { "type": "Point", "coordinates": [ -43.375368992559366, -22.939723876910953 ] } },
{ "type": "Feature", "properties": { "OBJECTID": 65, "Nome": "Vila Sapê", "Descricao": "Favela junto ao Rio Guerengue - Jacarepaguá.", "Endereco": " ", "Categoria": null }, "geometry": { "type": "Point", "coordinates": [ -43.376179072086117, -22.951194239498015 ] } },
{ "type": "Feature", "properties": { "OBJECTID": 66, "Nome": "Morro da Reunião", "Descricao": "Favela próxima à garganta do pato alto - Bairro do Tanque.", "Endereco": " ", "Categoria": null }, "geometry": { "type": "Point", "coordinates": [ -43.35657118017307, -22.911388395867036 ] } },
{ "type": "Feature", "properties": { "OBJECTID": 67, "Nome": "Hospital de Curupaiti", "Descricao": "Complexo de Hospitais para Hanseníase - Rua Godofredo Viana - Tanque.", "Endereco": " ", "Categoria": null }, "geometry": { "type": "Point", "coordinates": [ -43.367582499477727, -22.911975358776512 ] } },
{ "type": "Feature", "properties": { "OBJECTID": 68, "Nome": "Morro da Ligação", "Descricao": "Favela ocupando o morro da Pavuna ao Norte do Distrito Industrial Fazenda Botafogo e Rio Agri", "Endereco": " ", "Categoria": null }, "geometry": { "type": "Point", "coordinates": [ -43.404251388306577, -22.923968661595012 ] } },
{ "type": "Feature", "properties": { "OBJECTID": 69, "Nome": "Morro da Aliança", "Descricao": "Elevação do maciço da Pedra branca entre Estrada do Rio Grande e Rua Ipadu - 141 m de altitude.", "Endereco": " ", "Categoria": null }, "geometry": { "type": "Point", "coordinates": [ -43.393456886903778, -22.922383739917024 ] } },
{ "type": "Feature", "properties": { "OBJECTID": 70, "Nome": "Fazenda Taquara", "Descricao": "Antiga sede de Fazenda - Estrada Rodrigues Caldas - pertenceu ao Barão de Taquara - Jacarepaguá.", "Endereco": " ", "Categoria": null }, "geometry": { "type": "Point", "coordinates": [ -43.382929056686486, -22.922329580443943 ] } },
{ "type": "Feature", "properties": { "OBJECTID": 71, "Nome": "Jardim Boiúna", "Descricao": "Loteamento em Jacarepaguá junto a Serra do Engenho Novo.", "Endereco": " ", "Categoria": null }, "geometry": { "type": "Point", "coordinates": [ -43.39303746003548, -22.912295335660819 ] } },
{ "type": "Feature", "properties": { "OBJECTID": 72, "Nome": "Serra do Engenho Velho", "Descricao": "Ramificação do Maciço da Pedra Branca, separando Jacarepaguá de Realengo e Sulacap - muito devastada, com favelas e linhas de alta tensão -  200 m de altitude.", "Endereco": " ", "Categoria": null }, "geometry": { "type": "Point", "coordinates": [ -43.397860844507477, -22.905644404566868 ] } },
{ "type": "Feature", "properties": { "OBJECTID": 73, "Nome": "Cemitério de Jacarepaguá", "Descricao": "Cemitério localizado na Rua Benevente na Pechincha - Jacarepaguá.", "Endereco": " ", "Categoria": null }, "geometry": { "type": "Point", "coordinates": [ -43.355458926594707, -22.932495981637096 ] } },
{ "type": "Feature", "properties": { "OBJECTID": 74, "Nome": "Serra da Taquara", "Descricao": "Ramificação do Maciço da Pedra Branca, possuindo grandes pontões rochosos, culminando na Pedra Grande em Jacarepaguá - 392 m de altitude.", "Endereco": " ", "Categoria": null }, "geometry": { "type": "Point", "coordinates": [ -43.409733328350505, -22.925102160815943 ] } },
{ "type": "Feature", "properties": { "OBJECTID": 75, "Nome": "Morro Santo", "Descricao": "Elevação do maciço da Pedra Branca ao Norte da Colônia Juliano Moreira - sendo destruida pela pedreira Tamoios - 168 m de altitude.", "Endereco": " ", "Categoria": null }, "geometry": { "type": "Point", "coordinates": [ -43.406660287970368, -22.935901143092735 ] } },
{ "type": "Feature", "properties": { "OBJECTID": 76, "Nome": "Morro da Boiúna", "Descricao": "Elevação do Engenho Velho entre Estrada do Boiúna, Lar Frei Luiz e o Rio Grande - Altitude 196 m.", "Endereco": " ", "Categoria": null }, "geometry": { "type": "Point", "coordinates": [ -43.410144806079238, -22.911990213896178 ] } },
{ "type": "Feature", "properties": { "OBJECTID": 77, "Nome": "Morro do Valqueire", "Descricao": "Elevação da Serra do Valqueire - 311 m de altitude.", "Endereco": " ", "Categoria": null }, "geometry": { "type": "Point", "coordinates": [ -43.373510124668968, -22.900414180611012 ] } },
{ "type": "Feature", "properties": { "OBJECTID": 78, "Nome": "Quitite", "Descricao": "Localidade no sopé do Maciço da Tijuca em Jacarepaguá - acesso pela Estrada do Bananal.", "Endereco": " ", "Categoria": null }, "geometry": { "type": "Point", "coordinates": [ -43.325751456903177, -22.952830776065419 ] } },
{ "type": "Feature", "properties": { "OBJECTID": 79, "Nome": "Carrefour", "Descricao": "Rede francesa de supermercados.", "Endereco": " ", "Categoria": null }, "geometry": { "type": "Point", "coordinates": [ -43.311220003758862, -22.853774852781239 ] } },
{ "type": "Feature", "properties": { "OBJECTID": 80, "Nome": "Largo do Bicão", "Descricao": "Praça Ruben Wanderley - Irajá.", "Endereco": " ", "Categoria": null }, "geometry": { "type": "Point", "coordinates": [ -43.311361696071707, -22.839315611538559 ] } },
{ "type": "Feature", "properties": { "OBJECTID": 81, "Nome": "Cemitério de Irajá", "Descricao": "Cemitério localizado na Praça Nossa Sra. da Apresentação em Irajá.", "Endereco": " ", "Categoria": null }, "geometry": { "type": "Point", "coordinates": [ -43.323368089256959, -22.832462139410197 ] } },
{ "type": "Feature", "properties": { "OBJECTID": 82, "Nome": "CEASA", "Descricao": "Central de Abastecimento de Alimentos localizada na Av. Brasil próxima ao bairro do Irajá.", "Endereco": " ", "Categoria": null }, "geometry": { "type": "Point", "coordinates": [ -43.337157656712286, -22.832084789879971 ] } },
{ "type": "Feature", "properties": { "OBJECTID": 83, "Nome": "Parque Acari", "Descricao": "Favela que compõe grande complexo entre a Av. Brasil e o bairro de Acari.", "Endereco": " ", "Categoria": null }, "geometry": { "type": "Point", "coordinates": [ -43.344819193201751, -22.826756589607637 ] } },
{ "type": "Feature", "properties": { "OBJECTID": 84, "Nome": "Morro Jorge Turco", "Descricao": "Favela União - situada nessa elevação entre Colégio e Coelho Neto com reservatório no cume - 73 m de altitude.", "Endereco": " ", "Categoria": null }, "geometry": { "type": "Point", "coordinates": [ -43.346367011610305, -22.83837112960201 ] } },
{ "type": "Feature", "properties": { "OBJECTID": 85, "Nome": "Distrito Industrial da Fazenda Botafogo", "Descricao": "Grande área industrial na Av. Brasil - Rio Acari.", "Endereco": " ", "Categoria": null }, "geometry": { "type": "Point", "coordinates": [ -43.3594410405329, -22.830188640487723 ] } },
{ "type": "Feature", "properties": { "OBJECTID": 86, "Nome": "Morro da Pedreira", "Descricao": "Favela ocupando o morro da Pavuna ao Norte do Distrito Industrial Fazenda Botafogo e Rio Agri.", "Endereco": " ", "Categoria": null }, "geometry": { "type": "Point", "coordinates": [ -43.357134197314572, -22.822002462659714 ] } },
{ "type": "Feature", "properties": { "OBJECTID": 87, "Nome": "Caminho da Reta", "Descricao": "Favela ao longo da Linha Férrea - Honório Gurgel e Guadalupe.", "Endereco": " ", "Categoria": null }, "geometry": { "type": "Point", "coordinates": [ -43.378713005671827, -22.855586992238319 ] } },
{ "type": "Feature", "properties": { "OBJECTID": 88, "Nome": "Vila Eugênia", "Descricao": "Favela junto ao Rio Sapopemba - também chamado de Muguiço - entre Guadalupe e Marechal Hermes.", "Endereco": " ", "Categoria": null }, "geometry": { "type": "Point", "coordinates": [ -43.376381647857066, -22.851826482286025 ] } },
{ "type": "Feature", "properties": { "OBJECTID": 89, "Nome": "Zona Industrial de Guadalupe", "Descricao": "Área Industrial ao longo da Av. Brasil em Guadalupe.", "Endereco": " ", "Categoria": null }, "geometry": { "type": "Point", "coordinates": [ -43.37334544967495, -22.840752079161458 ] } },
{ "type": "Feature", "properties": { "OBJECTID": 90, "Nome": "Morro do Miguel", "Descricao": "Elevação na Faixa de Alta Tensão entre Pavuna e Guadalupe - 119 m de altitude.", "Endereco": " ", "Categoria": null }, "geometry": { "type": "Point", "coordinates": [ -43.378994544344486, -22.828798706193282 ] } },
{ "type": "Feature", "properties": { "OBJECTID": 91, "Nome": "DNER", "Descricao": "Departamento Nacional de Estradas e Rodagem - Rodovia Presidente Dutra - Trevo das Margaridas", "Endereco": " ", "Categoria": null }, "geometry": { "type": "Point", "coordinates": [ -43.325087266999716, -22.819132782737942 ] } },
{ "type": "Feature", "properties": { "OBJECTID": 92, "Nome": "Zona Industrial da Pavuna", "Descricao": "Área Industrial no entorno da rodovia Presidente Dutra, Linha Verde e Parque Colúmbia.", "Endereco": " ", "Categoria": null }, "geometry": { "type": "Point", "coordinates": [ -43.334908548228313, -22.807625256935015 ] } },
{ "type": "Feature", "properties": { "OBJECTID": 93, "Nome": "Área Militar", "Descricao": "Área sob controle do exército.", "Endereco": " ", "Categoria": null }, "geometry": { "type": "Point", "coordinates": [ -43.386184794280126, -22.845996932250284 ] } },
{ "type": "Feature", "properties": { "OBJECTID": 94, "Nome": "Final Feliz", "Descricao": "Favela.", "Endereco": " ", "Categoria": null }, "geometry": { "type": "Point", "coordinates": [ -43.386409372095443, -22.826958079495032 ] } },
{ "type": "Feature", "properties": { "OBJECTID": 95, "Nome": "Parque Vigário Geral", "Descricao": "Favela de grande extensão continua a favela Jardim Beira Mar junto a linha férrea em Vigário Geral.", "Endereco": " ", "Categoria": null }, "geometry": { "type": "Point", "coordinates": [ -43.302983870692813, -22.806088963568083 ] } },
{ "type": "Feature", "properties": { "OBJECTID": 96, "Nome": "Ilha do Raimundo", "Descricao": "Ilha desabitada entre a linha vermelha (Ilha do Governador) e a orla da Penha  - Baía de Guanabara.", "Endereco": " ", "Categoria": null }, "geometry": { "type": "Point", "coordinates": [ -43.258613228856831, -22.825648985289146 ] } },
{ "type": "Feature", "properties": { "OBJECTID": 97, "Nome": "Aeroporto Internacional do RJ Galeão - Tom Jobim", "Descricao": "Aeroporto Internacional do Rio de Janeiro \/ Galeão Antônio Carlos Jobim - Av. 20 de Janeiro - Ilha do Governador - Infraero - Telefone (21) 33985050 \/ 3398-4106 \/ www.infraero.gov.br", "Endereco": " ", "Categoria": null }, "geometry": { "type": "Point", "coordinates": [ -43.251293601431499, -22.813939982291558 ] } },
{ "type": "Feature", "properties": { "OBJECTID": 98, "Nome": "Fazendinha", "Descricao": "Área de Proteção Ambiental - Escola Venceslau Belo - Terreno na Penha.", "Endereco": " ", "Categoria": null }, "geometry": { "type": "Point", "coordinates": [ -43.267011187000222, -22.834454091320218 ] } },
{ "type": "Feature", "properties": { "OBJECTID": 99, "Nome": "Parque Ari Barroso", "Descricao": "Área de lazer pública na Penha Circular - criada em 1964 com área de 5 hectares.", "Endereco": " ", "Categoria": null }, "geometry": { "type": "Point", "coordinates": [ -43.287004156730163, -22.839139714460082 ] } },
{ "type": "Feature", "properties": { "OBJECTID": 100, "Nome": "Igreja da Penha", "Descricao": "Igreja de Nossa Senhora da Penha de França. Localizada no topo do penhasco de 69 metros de altura. No primeiro domingo de Outubro até o Primeiro domingo de Novembro é realizada nos finais de semana a tradicional festa da Penha. Telefone (21) 2290-0942.", "Endereco": " ", "Categoria": null }, "geometry": { "type": "Point", "coordinates": [ -43.274902649641881, -22.844245259986415 ] } },
{ "type": "Feature", "properties": { "OBJECTID": 101, "Nome": "Conjunto Pinheiros", "Descricao": "Aterro junto a Ilha dos Pinheiros na área da Maré.", "Endereco": " ", "Categoria": null }, "geometry": { "type": "Point", "coordinates": [ -43.23714250760932, -22.866778174067964 ] } },
{ "type": "Feature", "properties": { "OBJECTID": 102, "Nome": "Ilha do Fundão", "Descricao": "Aterrada junto com outras ilhas para formar a Cidade Universitária - Baía de Guanabara.", "Endereco": " ", "Categoria": null }, "geometry": { "type": "Point", "coordinates": [ -43.23145045505418, -22.857920056459243 ] } },
{ "type": "Feature", "properties": { "OBJECTID": 103, "Nome": "Ilha do Catalão", "Descricao": "Aterrada junto com outras ilhas para formar a Cidade Universitária - Baía de Guanabara.", "Endereco": " ", "Categoria": null }, "geometry": { "type": "Point", "coordinates": [ -43.222365146964606, -22.845890125778997 ] } },
{ "type": "Feature", "properties": { "OBJECTID": 104, "Nome": "Ilha do Bom Jesus", "Descricao": "Aterrada junto com outras ilhas para formar a Cidade Universitária - Baía de Guanabara.", "Endereco": " ", "Categoria": null }, "geometry": { "type": "Point", "coordinates": [ -43.212273261770775, -22.859487441213098 ] } },
{ "type": "Feature", "properties": { "OBJECTID": 105, "Nome": "Morro de Bonsucesso", "Descricao": "Também conhecido como Morro do Adeus - abriga favelas do Complexo do Alemão - encosta sul modificada.", "Endereco": " ", "Categoria": null }, "geometry": { "type": "Point", "coordinates": [ -43.262078380101045, -22.866062237424195 ] } },
{ "type": "Feature", "properties": { "OBJECTID": 106, "Nome": "Estaleiro Ishibrás", "Descricao": "Estaleiro em Campo Grande - Rua Campo Grande.", "Endereco": " ", "Categoria": null }, "geometry": { "type": "Point", "coordinates": [ -43.210790486689753, -22.870084135944918 ] } },
{ "type": "Feature", "properties": { "OBJECTID": 107, "Nome": "Trevo das Missões", "Descricao": "Trevo de ligaçào da Av. Brasil com a Rodovia Washington Luis (Rio-Petrópolis-Juiz de Fora).", "Endereco": " ", "Categoria": null }, "geometry": { "type": "Point", "coordinates": [ -43.288601880022718, -22.815675883120214 ] } },
{ "type": "Feature", "properties": { "OBJECTID": 108, "Nome": "Mercado São Sebastião", "Descricao": "Grande área de indústria e comércio alimentício - Entre Av. Brasil, Rio Irajá e Baía de Guanabara.", "Endereco": " ", "Categoria": null }, "geometry": { "type": "Point", "coordinates": [ -43.27962332172369, -22.818650786593611 ] } },
{ "type": "Feature", "properties": { "OBJECTID": 109, "Nome": "Jardim Novo Realengo", "Descricao": "Loteamento de grande extensão em Realengo, estende-se até a Serra do Engenho Velho, cruzado pelo rio Caranguejo.", "Endereco": " ", "Categoria": null }, "geometry": { "type": "Point", "coordinates": [ -43.418322082744041, -22.888824980590154 ] } },
{ "type": "Feature", "properties": { "OBJECTID": 110, "Nome": "Morro dos Macacos", "Descricao": "Favela e elevação do serrado do Engenho Novo voltada para Vila Isabel - 200 m de altitude.", "Endereco": " ", "Categoria": null }, "geometry": { "type": "Point", "coordinates": [ -43.424569563577094, -22.894296673473189 ] } },
{ "type": "Feature", "properties": { "OBJECTID": 111, "Nome": "Fazenda do Barata", "Descricao": "Antiga sede de Fazenda - Junto a floresta do Piraquara - Realengo.", "Endereco": " ", "Categoria": null }, "geometry": { "type": "Point", "coordinates": [ -43.447393780205779, -22.897312461031905 ] } },
{ "type": "Feature", "properties": { "OBJECTID": 112, "Nome": "Serra do Bangu", "Descricao": "Elevada crista montanhosa, vertente norte do maciço da Pedra Branca, culminando na Pedra do Ponto e voltada para Bangu - 938 m de altitude.", "Endereco": " ", "Categoria": null }, "geometry": { "type": "Point", "coordinates": [ -43.453145901072801, -22.899497907487927 ] } },
{ "type": "Feature", "properties": { "OBJECTID": 113, "Nome": "Morro do Sandá", "Descricao": "Elevação da Serra de Bangu, ocupada por grande pedreira coltada para banco - 221 m de altitude.", "Endereco": " ", "Categoria": null }, "geometry": { "type": "Point", "coordinates": [ -43.459509499988492, -22.891560261282617 ] } },
{ "type": "Feature", "properties": { "OBJECTID": 114, "Nome": "Cemitério de Realengo", "Descricao": "Cemitério localizado na Rua Morundu.", "Endereco": " ", "Categoria": null }, "geometry": { "type": "Point", "coordinates": [ -43.447930500518488, -22.885833081236505 ] } },
{ "type": "Feature", "properties": { "OBJECTID": 115, "Nome": "Bangu A.C.", "Descricao": "Clube de Futebol da Cidade do Rio de Janeiro.", "Endereco": " ", "Categoria": null }, "geometry": { "type": "Point", "coordinates": [ -43.456519212888232, -22.872482639714782 ] } },
{ "type": "Feature", "properties": { "OBJECTID": 116, "Nome": "Fábrica Bangu", "Descricao": "Antiga Fábrica de Tecidos do Bairro de Bangu e tombada pelo patrimônio histórico.", "Endereco": " ", "Categoria": null }, "geometry": { "type": "Point", "coordinates": [ -43.467183317781291, -22.877570223959047 ] } },
{ "type": "Feature", "properties": { "OBJECTID": 117, "Nome": "Vila Aliança", "Descricao": "Conjunto Habitacional da década de 60 - Senador Camará.", "Endereco": " ", "Categoria": null }, "geometry": { "type": "Point", "coordinates": [ -43.477292937474274, -22.869264600345097 ] } },
{ "type": "Feature", "properties": { "OBJECTID": 118, "Nome": "Morro do Cafuá", "Descricao": "Elevação desmatada próxima a Vila Kennedy - 172 m de altitude.", "Endereco": " ", "Categoria": null }, "geometry": { "type": "Point", "coordinates": [ -43.481913059970047, -22.863782305358324 ] } },
{ "type": "Feature", "properties": { "OBJECTID": 119, "Nome": "Serra do Retiro", "Descricao": "Elevações entre Vila Kennedy e Estrada do Taquaral - 235 m de altitude.", "Endereco": " ", "Categoria": null }, "geometry": { "type": "Point", "coordinates": [ -43.49034480194414, -22.865462868800943 ] } },
{ "type": "Feature", "properties": { "OBJECTID": 120, "Nome": "Vila Kennedy", "Descricao": "Grande Conjunto Habitacional da década de 60 na Av. Brasil em Bangu - entre as Serras do Quitungo e Retiro.", "Endereco": " ", "Categoria": null }, "geometry": { "type": "Point", "coordinates": [ -43.48948505220617, -22.857837138655064 ] } },
{ "type": "Feature", "properties": { "OBJECTID": 121, "Nome": "Catiri", "Descricao": "Loteamento. Na região fica a Vila Catiri que é uma Favela.", "Endereco": " ", "Categoria": null }, "geometry": { "type": "Point", "coordinates": [ -43.471349078413844, -22.848958196873909 ] } },
{ "type": "Feature", "properties": { "OBJECTID": 122, "Nome": "Conjunto João Saldanha", "Descricao": "Conjunto Habitacional de Baixa Renda - Cancela Preta - Bangu.", "Endereco": " ", "Categoria": null }, "geometry": { "type": "Point", "coordinates": [ -43.463220175718831, -22.847588996951618 ] } },
{ "type": "Feature", "properties": { "OBJECTID": 123, "Nome": "Campo de Gericinó", "Descricao": "Área Militar - Extensa Baixada com pequenas elevações entre Nilópolis, Anchieta, Vila Militar, Realengo e Bangú - Treinamento do Exército", "Endereco": " ", "Categoria": null }, "geometry": { "type": "Point", "coordinates": [ -43.435001288282329, -22.845032114934156 ] } },
{ "type": "Feature", "properties": { "OBJECTID": 124, "Nome": "Batan", "Descricao": "Favela e elevação junto a área de Gericinó - Altura 123 m.", "Endereco": " ", "Categoria": null }, "geometry": { "type": "Point", "coordinates": [ -43.423441485137921, -22.864731545150608 ] } },
{ "type": "Feature", "properties": { "OBJECTID": 125, "Nome": "Fazenda do Viegas", "Descricao": "Antiga sede de Fazenda - Atual sub-prefeitura da Zona Oeste - Senador Camará.", "Endereco": " ", "Categoria": null }, "geometry": { "type": "Point", "coordinates": [ -43.484283427779062, -22.886467744232025 ] } },
{ "type": "Feature", "properties": { "OBJECTID": 126, "Nome": "Jardim Alecrim", "Descricao": "Loteamento em Senador Camará junto ao Rio do Registro.", "Endereco": " ", "Categoria": null }, "geometry": { "type": "Point", "coordinates": [ -43.484372883173819, -22.892625300440624 ] } },
{ "type": "Feature", "properties": { "OBJECTID": 127, "Nome": "Fazenda Coqueiros", "Descricao": "Favela de grande extensão em Senador Camará.", "Endereco": " ", "Categoria": null }, "geometry": { "type": "Point", "coordinates": [ -43.491873753180215, -22.873549991202133 ] } },
{ "type": "Feature", "properties": { "OBJECTID": 128, "Nome": "Complexo Penitenciário de Bangu", "Descricao": "Conjunto de Penitenciárias - Acesso Estrada Emílio Murrell Filho.", "Endereco": " ", "Categoria": null }, "geometry": { "type": "Point", "coordinates": [ -43.482085282054655, -22.845039306283486 ] } },
{ "type": "Feature", "properties": { "OBJECTID": 129, "Nome": "Mallet", "Descricao": "Loteamento em Realengo - Av. Marechal Fontenelle.", "Endereco": " ", "Categoria": null }, "geometry": { "type": "Point", "coordinates": [ -43.418243047924094, -22.880866802567283 ] } },
{ "type": "Feature", "properties": { "OBJECTID": 130, "Nome": "Serra da Posse", "Descricao": "Elevações entre Campo Grande e Santíssimo, de baixa altitude, culminando no Morro da Posse - 204 m de altitude.", "Endereco": " ", "Categoria": null }, "geometry": { "type": "Point", "coordinates": [ -43.544223315679403, -22.889065768534557 ] } },
{ "type": "Feature", "properties": { "OBJECTID": 131, "Nome": "Bairro Adriana", "Descricao": "Loteamento na Estrada da Posse e extende-se até a Serra da Posse.", "Endereco": " ", "Categoria": null }, "geometry": { "type": "Point", "coordinates": [ -43.548313739343548, -22.885488630785126 ] } },
{ "type": "Feature", "properties": { "OBJECTID": 132, "Nome": "Pedra Angular", "Descricao": "Localidade residencial composta por loteamento entre as estradas da posse e do mendanha em Campo Grande.", "Endereco": " ", "Categoria": null }, "geometry": { "type": "Point", "coordinates": [ -43.557084841265052, -22.888230363943329 ] } },
{ "type": "Feature", "properties": { "OBJECTID": 133, "Nome": "West Shopping", "Descricao": "Shopping Center localizado em Campo Grande. Estrada do Mendanha, 555. Telefone 2414-9000. Aberto diariamente das 10 às 22 horas.", "Endereco": " ", "Categoria": null }, "geometry": { "type": "Point", "coordinates": [ -43.557653478565257, -22.884422161920387 ] } },
{ "type": "Feature", "properties": { "OBJECTID": 134, "Nome": "Morro do João Vicente", "Descricao": "Pequena elevação ao norte da estrada da Posse em Campo Grande - atinge 102 m de altitude.", "Endereco": " ", "Categoria": null }, "geometry": { "type": "Point", "coordinates": [ -43.548732263171019, -22.87601206338363 ] } },
{ "type": "Feature", "properties": { "OBJECTID": 135, "Nome": "Distrito Industrial de Campo Grande", "Descricao": "Grande área industrial na Av. Brasil - Estrada do Pedregoso.", "Endereco": " ", "Categoria": null }, "geometry": { "type": "Point", "coordinates": [ -43.57320073708906, -22.861253280900751 ] } },
{ "type": "Feature", "properties": { "OBJECTID": 136, "Nome": "Morro do Carapuçu", "Descricao": "Elevação pedregosa próxima a estrada Rio-São Paulo em Campo Grande - 120 m de altitude.", "Endereco": " ", "Categoria": null }, "geometry": { "type": "Point", "coordinates": [ -43.588957152966543, -22.873662633749039 ] } },
{ "type": "Feature", "properties": { "OBJECTID": 137, "Nome": "Bairro Corcundinha", "Descricao": "Loteamento - Estrada Santa Maria - Campo Grande.", "Endereco": " ", "Categoria": null }, "geometry": { "type": "Point", "coordinates": [ -43.584564286549295, -22.886756263532217 ] } },
{ "type": "Feature", "properties": { "OBJECTID": 138, "Nome": "Indústria Ishibrás", "Descricao": "Estaleiros na ponta do Cajú.", "Endereco": " ", "Categoria": null }, "geometry": { "type": "Point", "coordinates": [ -43.581808101503348, -22.902398478342178 ] } },
{ "type": "Feature", "properties": { "OBJECTID": 139, "Nome": "Cemitério de Campo Grande", "Descricao": "Cemitério localizado na Av. Cesário de Melo em Campo Grande.", "Endereco": " ", "Categoria": null }, "geometry": { "type": "Point", "coordinates": [ -43.573156902956917, -22.908358037066712 ] } },
{ "type": "Feature", "properties": { "OBJECTID": 140, "Nome": "Rodoviária de Campo Grande", "Descricao": "Terminal de ônibus - Rua Iaçu em Campo Grande.", "Endereco": " ", "Categoria": null }, "geometry": { "type": "Point", "coordinates": [ -43.554593442575516, -22.901749528898446 ] } },
{ "type": "Feature", "properties": { "OBJECTID": 141, "Nome": "Vila Santa Rita", "Descricao": "Localidade em Campo Grande.", "Endereco": " ", "Categoria": null }, "geometry": { "type": "Point", "coordinates": [ -43.541143742729091, -22.909937945365854 ] } },
{ "type": "Feature", "properties": { "OBJECTID": 142, "Nome": "Vila do Céu", "Descricao": "Favela junto a linha férrea e Rua Guarujá no bairro de Cosmos - Limitada pelo Córrego da Rãs.", "Endereco": " ", "Categoria": null }, "geometry": { "type": "Point", "coordinates": [ -43.606897422075498, -22.906588439953051 ] } },
{ "type": "Feature", "properties": { "OBJECTID": 143, "Nome": "Serra da Paciência", "Descricao": "Elevações ao norte da estação de Paciência na Zona Oeste - atinge 200 m de altitude.", "Endereco": " ", "Categoria": null }, "geometry": { "type": "Point", "coordinates": [ -43.618765270843333, -22.897149377481856 ] } },
{ "type": "Feature", "properties": { "OBJECTID": 144, "Nome": "Conjunto Campinho", "Descricao": "Conjunto Habitacional de Baixa Renda - Estrada do Campinho - Campo Grande.", "Endereco": " ", "Categoria": null }, "geometry": { "type": "Point", "coordinates": [ -43.614496400494737, -22.880593847651674 ] } },
{ "type": "Feature", "properties": { "OBJECTID": 145, "Nome": "Indústria Brahma (AMBEV)", "Descricao": "Fábrica de Cervejas junto ao Rio Guandumirim.", "Endereco": " ", "Categoria": null }, "geometry": { "type": "Point", "coordinates": [ -43.608470008934049, -22.864520609433288 ] } },
{ "type": "Feature", "properties": { "OBJECTID": 146, "Nome": "Morro do Furado", "Descricao": "Elevação contínua a Serra da Paciência com pequena floresta - 147 m de altitude.", "Endereco": " ", "Categoria": null }, "geometry": { "type": "Point", "coordinates": [ -43.62049466914236, -22.889677240530634 ] } },
{ "type": "Feature", "properties": { "OBJECTID": 147, "Nome": "Terminal das Barcas", "Descricao": "Barcas e Catamarãs para Niterói e Paquetá na Praça XV de Novembro - Telebarcas: 2533-7524, 2532-6274.", "Endereco": " ", "Categoria": null }, "geometry": { "type": "Point", "coordinates": [ -43.168607438316698, -22.82644538670603 ] } },
{ "type": "Feature", "properties": { "OBJECTID": 148, "Nome": "Ponta da Ribeira", "Descricao": "Acidente litorâneo na ribeira, junto a depósitos de combustível - Ilha do Governador.", "Endereco": " ", "Categoria": null }, "geometry": { "type": "Point", "coordinates": [ -43.164537533886843, -22.822292816170975 ] } },
{ "type": "Feature", "properties": { "OBJECTID": 149, "Nome": "Morro do Matoso", "Descricao": "Elevação na Reserva Florestal da área da Marinha - próximo ao Rio Jeguiá - Ilha do Governador - 69 m de altitude.", "Endereco": " ", "Categoria": null }, "geometry": { "type": "Point", "coordinates": [ -43.185824989226923, -22.825314315896307 ] } },
{ "type": "Feature", "properties": { "OBJECTID": 150, "Nome": "Aparu do Jequiá", "Descricao": "Área de preservação ambiental do rio Jequiá (Ilha do Governandor)", "Endereco": " ", "Categoria": null }, "geometry": { "type": "Point", "coordinates": [ -43.184322979118541, -22.821028595172177 ] } },
{ "type": "Feature", "properties": { "OBJECTID": 151, "Nome": "Cemitério da Ilha do Governador", "Descricao": "Cemitério localizado na Cacuia - Ilha do Governandor.", "Endereco": " ", "Categoria": null }, "geometry": { "type": "Point", "coordinates": [ -43.187469930040088, -22.811898562829835 ] } },
{ "type": "Feature", "properties": { "OBJECTID": 152, "Nome": "Ilha Plaza Shopping", "Descricao": "Shopping Center localizado na Ilha do Governador. Av. Maestro Paulo e Silva, 400. Telefone (21) 2462-2616.", "Endereco": " ", "Categoria": null }, "geometry": { "type": "Point", "coordinates": [ -43.202464611938666, -22.802721782563687 ] } },
{ "type": "Feature", "properties": { "OBJECTID": 153, "Nome": "Morro do Limão", "Descricao": "Elevação na reserva Florestal da área da Aeronáutica na Ilha do Governador - 68 m de altitude.", "Endereco": " ", "Categoria": null }, "geometry": { "type": "Point", "coordinates": [ -43.217922714663651, -22.806021125274402 ] } },
{ "type": "Feature", "properties": { "OBJECTID": 154, "Nome": "Parque Royal", "Descricao": "Favela junto a orla da Baía de Guanabara ao norte do bairrro da Portuguesa - Ilha do Governador.", "Endereco": " ", "Categoria": null }, "geometry": { "type": "Point", "coordinates": [ -43.209569633303282, -22.794286703960022 ] } },
{ "type": "Feature", "properties": { "OBJECTID": 155, "Nome": "Tubiacanga", "Descricao": "Bairro e Colônia de Pescadores ao Norte da Ilha do Governador - Área Militar da Aéronáutica.", "Endereco": " ", "Categoria": null }, "geometry": { "type": "Point", "coordinates": [ -43.226680938363849, -22.7856032634873 ] } },
{ "type": "Feature", "properties": { "OBJECTID": 156, "Nome": "EISA", "Descricao": "Estaleiro em Bancários - Ilha do Governador.", "Endereco": " ", "Categoria": null }, "geometry": { "type": "Point", "coordinates": [ -43.188725759516274, -22.785898060654269 ] } },
{ "type": "Feature", "properties": { "OBJECTID": 157, "Nome": "Ponta Grossa", "Descricao": "Acidente Litorâneo na área militar da Marinha na Ilha do Governador  e também existe um acidente com o mesmo nome em Pedra de Guaratiba - Baía de Sepetiba.", "Endereco": " ", "Categoria": null }, "geometry": { "type": "Point", "coordinates": [ -43.182918909984693, -22.782232099662171 ] } },
{ "type": "Feature", "properties": { "OBJECTID": 158, "Nome": "Pichunas", "Descricao": "Favela Bela Vista da Pichuna - junto a área militar da Marinha - Freguesia - Ilha do Governador.", "Endereco": " ", "Categoria": null }, "geometry": { "type": "Point", "coordinates": [ -43.174301292456683, -22.786495785779358 ] } },
{ "type": "Feature", "properties": { "OBJECTID": 159, "Nome": "Bananal", "Descricao": "Localidade e praia junto a reserva da Marinha - Freguesia - Ilha do Governador.", "Endereco": " ", "Categoria": null }, "geometry": { "type": "Point", "coordinates": [ -43.162291451437312, -22.788310003851386 ] } },
{ "type": "Feature", "properties": { "OBJECTID": 160, "Nome": "Parque Manuel Bandeira", "Descricao": "Oriundo de Aterro do antigo Saco da Olaria no Cocotá - possui quadras e equipamentos de lazer - prevista estação das barcas - Ilha do Governador.", "Endereco": " ", "Categoria": null }, "geometry": { "type": "Point", "coordinates": [ -43.17979971758006, -22.804258176111599 ] } },
{ "type": "Feature", "properties": { "OBJECTID": 161, "Nome": "Dendê", "Descricao": "Localidade e Favela na Ilha do Governador.", "Endereco": " ", "Categoria": null }, "geometry": { "type": "Point", "coordinates": [ -43.184882793133326, -22.801058989001934 ] } },
{ "type": "Feature", "properties": { "OBJECTID": 162, "Nome": "PUC", "Descricao": "Pontifícia Universidade Católica - Universidade particular situada na Gávea.", "Endereco": " ", "Categoria": null }, "geometry": { "type": "Point", "coordinates": [ -43.233080341072984, -22.978988197863774 ] } },
{ "type": "Feature", "properties": { "OBJECTID": 163, "Nome": "Morro da Margarida", "Descricao": " ", "Endereco": " ", "Categoria": null }, "geometry": { "type": "Point", "coordinates": [ -43.234530175464947, -22.971860356118817 ] } },
{ "type": "Feature", "properties": { "OBJECTID": 164, "Nome": "Jóquei Clube", "Descricao": "Hipódromo da Gávea - ocupa grande área entre a Rua Jardim Botânico e Lagoa Rodrigo de Freitas - onde ocorre o Grande Prêmio Brasil que é a prova mais importante do Turfe.", "Endereco": " ", "Categoria": null }, "geometry": { "type": "Point", "coordinates": [ -43.221620304538249, -22.973080507667095 ] } },
{ "type": "Feature", "properties": { "OBJECTID": 165, "Nome": "Jardim Botânico", "Descricao": "Área de 141 hectares, onde são vistas 6.200 espécies de plantas e árvores tropicais. Rua Jardim Botânico, 1008 - Jardim Botânico - Tel. 2294-9349. Aberto diariamente das 8h às 17h.", "Endereco": " ", "Categoria": null }, "geometry": { "type": "Point", "coordinates": [ -43.223930373472335, -22.967622260778935 ] } },
{ "type": "Feature", "properties": { "OBJECTID": 166, "Nome": "Ilha Piraquê", "Descricao": "Clube Naval na Lagoa Rodrigo de Freitas.", "Endereco": " ", "Categoria": null }, "geometry": { "type": "Point", "coordinates": [ -43.216103549410036, -22.968059172951627 ] } },
{ "type": "Feature", "properties": { "OBJECTID": 167, "Nome": "Ilha Caiçaras", "Descricao": "Clube localizado na Lagoa Rodrigo de Freitas.", "Endereco": " ", "Categoria": null }, "geometry": { "type": "Point", "coordinates": [ -43.212498511651077, -22.979301688808622 ] } },
{ "type": "Feature", "properties": { "OBJECTID": 168, "Nome": "Morro dos Cabritos", "Descricao": "Favela e elevação rochosa entre Copacabana e Lagoa Rodrigo de Freitas - 378 m de altitude.", "Endereco": " ", "Categoria": null }, "geometry": { "type": "Point", "coordinates": [ -43.196831002131397, -22.970438845728211 ] } },
{ "type": "Feature", "properties": { "OBJECTID": 169, "Nome": "Pavão - Pavãozinho", "Descricao": "Conjunto de favelas na encosta sul do Morro do Cantagalo com acesso pela ladeira Saint Roman em Copacabana.", "Endereco": " ", "Categoria": null }, "geometry": { "type": "Point", "coordinates": [ -43.195699362783522, -22.98025709125233 ] } },
{ "type": "Feature", "properties": { "OBJECTID": 170, "Nome": "Ponta do Arpoador", "Descricao": "Acidente litorâneo formado por blocos rochosos entre as Praias do Diabo e Arpoador - Cartão Postal do RIO onde se vê um lindo pôr de sol.", "Endereco": " ", "Categoria": null }, "geometry": { "type": "Point", "coordinates": [ -43.190933566632744, -22.990541143766844 ] } },
{ "type": "Feature", "properties": { "OBJECTID": 171, "Nome": "Forte de Copacabana", "Descricao": "Construção histórica onde existiu a primeira igreja de Nossa Sra. de Copacabana - sobre terreno rochoso no posto seis - Praia de Copacabana.", "Endereco": " ", "Categoria": null }, "geometry": { "type": "Point", "coordinates": [ -43.185119531752669, -22.985891467083171 ] } },
{ "type": "Feature", "properties": { "OBJECTID": 172, "Nome": "Morro do Leme", "Descricao": "Elevação na ponta do Leme, abrigando forte Duque de Caxias  e Bateria de Canhões do Cume com parque rochoso - 150 m de altitude.", "Endereco": " ", "Categoria": null }, "geometry": { "type": "Point", "coordinates": [ -43.161935914553837, -22.963848723839646 ] } },
{ "type": "Feature", "properties": { "OBJECTID": 173, "Nome": "Ilha Cotunduba", "Descricao": "Ilha Oceânica defronte ao Morro do Leme.", "Endereco": " ", "Categoria": null }, "geometry": { "type": "Point", "coordinates": [ -43.149109958931753, -22.963469533393432 ] } },
{ "type": "Feature", "properties": { "OBJECTID": 174, "Nome": "Rio Sul", "Descricao": "Rio Sul Shopping Center - Rua Lauro Muller, 116 - Botafogo - Tel. 2545-7200 \/ 2545-7279. Aberto Diariamente das 10 às 22 horas.", "Endereco": " ", "Categoria": null }, "geometry": { "type": "Point", "coordinates": [ -43.177032502892274, -22.957097705180885 ] } },
{ "type": "Feature", "properties": { "OBJECTID": 175, "Nome": "Morro do Pasmado", "Descricao": "Elevação ocupada pelo Parque I. Rabin - Túnel do Pasmado onde havia uma favela que foi removida na década de 60.", "Endereco": " ", "Categoria": null }, "geometry": { "type": "Point", "coordinates": [ -43.178961788917135, -22.951862641472697 ] } },
{ "type": "Feature", "properties": { "OBJECTID": 176, "Nome": "Enseada de Botafogo", "Descricao": "Localizada na Baia de Guanabara e ao fundo localiza-se a Praia de Botafogo com 700 metros de extensão.", "Endereco": " ", "Categoria": null }, "geometry": { "type": "Point", "coordinates": [ -43.174019099041736, -22.946819801984955 ] } },
{ "type": "Feature", "properties": { "OBJECTID": 177, "Nome": "Morro da Urca", "Descricao": "Famoso bloco rochoso de 220 m de altitude compondo o Pão de Açucar - um dos principais cartões postais da cidade. Possui duas estações de Teleférico e paisagem deslumbrante da Zona Sul, Baia de Guanabara e Enseada de Botafogo.", "Endereco": " ", "Categoria": null }, "geometry": { "type": "Point", "coordinates": [ -43.165012799669306, -22.951854006271606 ] } },
{ "type": "Feature", "properties": { "OBJECTID": 178, "Nome": "Morro da Babilônia", "Descricao": "Elevação com paredão rochoso voltado para a Urca  -  Floresta e Favelas voltadas para o Leme - 238 m de altitude - Tombada pelo Patrimônio.", "Endereco": " ", "Categoria": null }, "geometry": { "type": "Point", "coordinates": [ -43.170254419989448, -22.957457095542921 ] } },
{ "type": "Feature", "properties": { "OBJECTID": 179, "Nome": "Pão de Açúcar", "Descricao": "Penhasco Monolítico é terminal da viagem de 750 metros, alcançando uma altura de 396 metros, de bondinho. Do alto de seu mirante, uma vista ímpar da baía, do Rio, das praias, das lagoas e de edificações históricas. Av. Pasteur, 520 - Praia Vermelha.", "Endereco": " ", "Categoria": null }, "geometry": { "type": "Point", "coordinates": [ -43.155796665662983, -22.949582442470607 ] } },
{ "type": "Feature", "properties": { "OBJECTID": 180, "Nome": "Morro Cara de Cão", "Descricao": "Berço de fundação da Cidade do Rio de Janeiro em 1565 - Abriga a fortaleza de São João - área militar do exército.", "Endereco": " ", "Categoria": null }, "geometry": { "type": "Point", "coordinates": [ -43.154502902535882, -22.940813571971649 ] } },
{ "type": "Feature", "properties": { "OBJECTID": 181, "Nome": "Palácio Guanabara", "Descricao": "Sede do Governo do Estado do Rio de Janeiro.", "Endereco": " ", "Categoria": null }, "geometry": { "type": "Point", "coordinates": [ -43.184565238756811, -22.938025904373422 ] } },
{ "type": "Feature", "properties": { "OBJECTID": 182, "Nome": "Morro Dona Marta", "Descricao": "Morro onde fica localizada a Favela Santa Marta. Possui mirante privilegiado da Zona Sul - 364 m de altitude.", "Endereco": " ", "Categoria": null }, "geometry": { "type": "Point", "coordinates": [ -43.194144167361905, -22.947635275729432 ] } },
{ "type": "Feature", "properties": { "OBJECTID": 183, "Nome": "Palácio da Cidade", "Descricao": "Sede da Prefeitura do Rio de Janeiro em Botafogo.", "Endereco": " ", "Categoria": null }, "geometry": { "type": "Point", "coordinates": [ -43.194041378751336, -22.95050921651103 ] } },
{ "type": "Feature", "properties": { "OBJECTID": 184, "Nome": "Paineiras", "Descricao": "Localidade turística, mirante e estação da estrada de ferro do Corcovado na Serra Carioca - 460 m de altitude.", "Endereco": " ", "Categoria": null }, "geometry": { "type": "Point", "coordinates": [ -43.217554115454263, -22.947164699723174 ] } },
{ "type": "Feature", "properties": { "OBJECTID": 185, "Nome": "Serra da Formiga", "Descricao": "Penhasco rochoso da Serra Carioca voltado para o bairro de Rio Comprido - atinge 625 m de altitude.", "Endereco": " ", "Categoria": null }, "geometry": { "type": "Point", "coordinates": [ -43.219160816678333, -22.942025790558208 ] } },
{ "type": "Feature", "properties": { "OBJECTID": 186, "Nome": "Morro do Sumaré", "Descricao": "Elevação da serra da Carioca voltada para a Tijuca - 556 m de altitude.", "Endereco": " ", "Categoria": null }, "geometry": { "type": "Point", "coordinates": [ -43.224523555692429, -22.936871626188506 ] } },
{ "type": "Feature", "properties": { "OBJECTID": 187, "Nome": "Serra da Carioca", "Descricao": "Grande crista montanhosa do Maciço da Tijuca, separando a Tijuca da Zona Sul - atinge 786 m no ponto mais alto e no seu cume estão torres de comunicação.", "Endereco": " ", "Categoria": null }, "geometry": { "type": "Point", "coordinates": [ -43.233375595819126, -22.95168496204894 ] } },
{ "type": "Feature", "properties": { "OBJECTID": 188, "Nome": "Parque Lage", "Descricao": "Seu entorno compreende 348 mil metros quadrados de floresta nativa da Mata Atlântica, nas encostas do Corcovado. Aberto diariamente das 7h às 18h - Rua Jardim Botânico, 414 - Jardim Botânico - Tel 2286-8184 - www.eavparquelage.org.br", "Endereco": " ", "Categoria": null }, "geometry": { "type": "Point", "coordinates": [ -43.211569070226965, -22.959949971243216 ] } },
{ "type": "Feature", "properties": { "OBJECTID": 189, "Nome": "Morro da Saudade", "Descricao": "Elevação com parques municipais, floresta e reflorestamento - entre Lagoa, Humaitá e Bairro Peixoto - 244 m de altitude.", "Endereco": " ", "Categoria": null }, "geometry": { "type": "Point", "coordinates": [ -43.196061333715633, -22.962214202654575 ] } },
{ "type": "Feature", "properties": { "OBJECTID": 190, "Nome": "Túnel Alaor Prata", "Descricao": "Túnel Velho - a primeira ligação direta para bondes em Copacabana, iniciando a ocupação do bairro.", "Endereco": " ", "Categoria": null }, "geometry": { "type": "Point", "coordinates": [ -43.191112598503238, -22.962299744479765 ] } },
{ "type": "Feature", "properties": { "OBJECTID": 191, "Nome": "Morro de São João", "Descricao": "Elevação limítrofe de Copacabana - paredão rochoso e reserva florestal - junto ao Cemitério São João Batista.", "Endereco": " ", "Categoria": null }, "geometry": { "type": "Point", "coordinates": [ -43.184123333734817, -22.961492381524586 ] } },
{ "type": "Feature", "properties": { "OBJECTID": 192, "Nome": "Cemitério São João Batista", "Descricao": "Cemitério localizado na Rua General Polidoro - próximo ao morro de São João - Botafogo.", "Endereco": " ", "Categoria": null }, "geometry": { "type": "Point", "coordinates": [ -43.188489367284447, -22.95909687705619 ] } },
{ "type": "Feature", "properties": { "OBJECTID": 193, "Nome": "Parque da Catacumba", "Descricao": "Parque reune em suas praças e jardins esculturas de artistas plásticos de renome internacional. Existe também uma trilha de 20 minutos até o Mirante do Sacopã com 130 metros de altura. Av. Epitácio Pessoa - Lagoa - Aberto das 8h às 19h.", "Endereco": " ", "Categoria": null }, "geometry": { "type": "Point", "coordinates": [ -43.203110304026481, -22.970837172363172 ] } },
{ "type": "Feature", "properties": { "OBJECTID": 194, "Nome": "Jardim de Alah", "Descricao": "Conjunto de Praças e Parques ao longo do canal de ligação entre a Lagoa Rodrigo de Freitas e o Oceâno Atlântico.", "Endereco": " ", "Categoria": null }, "geometry": { "type": "Point", "coordinates": [ -43.214250937810327, -22.982182359647759 ] } },
{ "type": "Feature", "properties": { "OBJECTID": 195, "Nome": "Parque Sérgio Bernardes", "Descricao": "Atual nome do Parque Dois Irmãos.", "Endereco": " ", "Categoria": null }, "geometry": { "type": "Point", "coordinates": [ -43.229681711522232, -22.989393276007977 ] } },
{ "type": "Feature", "properties": { "OBJECTID": 196, "Nome": "Cristo Redentor", "Descricao": "Símbolo da cidade, representa a hospitalidade carioca. Situada no Parque Nacional da Tijuca, a 710 m de altitude, a estátua do Cristo possui  30 m de altura. Rua Cosme Velho, 513 - Cosme Velho - 2558-1329 - www.corcovado.org.br -", "Endereco": " ", "Categoria": null }, "geometry": { "type": "Point", "coordinates": [ -43.210237350536971, -22.951930259948423 ] } },
{ "type": "Feature", "properties": { "OBJECTID": 197, "Nome": "Morro do Corcovado", "Descricao": "Juntamente com o Pão de Açucar é o cartão postal mais conhecido do Rio de Janeiro.", "Endereco": " ", "Categoria": null }, "geometry": { "type": "Point", "coordinates": [ -43.21276718124939, -22.951916192901695 ] } },
{ "type": "Feature", "properties": { "OBJECTID": 198, "Nome": "Lagoa Rodrigo de Freitas", "Descricao": "Antiga Lagoa de Sacopemba - sofreu aterros sucessivos e suas terras pertencem a Rodrigo de Freitas - cartão postal da cidade e importante área de lazer.", "Endereco": " ", "Categoria": null }, "geometry": { "type": "Point", "coordinates": [ -43.211503864332087, -22.971762480930177 ] } },
{ "type": "Feature", "properties": { "OBJECTID": 199, "Nome": "Praia do Vidigal", "Descricao": "Pequena extensão de areia, localizada na Av. Niemayer que liga o Leblon a São Conrado.", "Endereco": " ", "Categoria": null }, "geometry": { "type": "Point", "coordinates": [ -43.232033225170653, -22.992096249265259 ] } },
{ "type": "Feature", "properties": { "OBJECTID": 200, "Nome": "Praia do Leblon", "Descricao": "Continuação da Praia de Ipanema indo até os penhascos da Av. Niemeyer.", "Endereco": " ", "Categoria": null }, "geometry": { "type": "Point", "coordinates": [ -43.221186342694594, -22.98789212563068 ] } },
{ "type": "Feature", "properties": { "OBJECTID": 201, "Nome": "Praia de Ipanema", "Descricao": "São 2 km de praia entre Arpoador e Jardim de Alah.", "Endereco": " ", "Categoria": null }, "geometry": { "type": "Point", "coordinates": [ -43.206182706152177, -22.987596827489231 ] } },
{ "type": "Feature", "properties": { "OBJECTID": 202, "Nome": "Praia do Arpoador", "Descricao": "Possui 800 m de extensão entre o Forte de Copacabana e a Rua Francisco Otaviano com Av. Vieira Souto.", "Endereco": " ", "Categoria": null }, "geometry": { "type": "Point", "coordinates": [ -43.19490518091316, -22.988741329690647 ] } },
{ "type": "Feature", "properties": { "OBJECTID": 203, "Nome": "Praia de Copacabana", "Descricao": "Tem 4,15 km de extensão, acompanhando a Av. Atlântica até o Forte de Copacabana.", "Endereco": " ", "Categoria": null }, "geometry": { "type": "Point", "coordinates": [ -43.183209605174532, -22.973477521786535 ] } },
{ "type": "Feature", "properties": { "OBJECTID": 204, "Nome": "Praia do Leme", "Descricao": "Compreende o trecho de um quilômetro que vai do Morro do Leme até a Av. Princesa Isabel em Copacabana.", "Endereco": " ", "Categoria": null }, "geometry": { "type": "Point", "coordinates": [ -43.168227975528374, -22.964581635690138 ] } },
{ "type": "Feature", "properties": { "OBJECTID": 205, "Nome": "Praia Vermelha", "Descricao": "São 243 m de areia amarelada e grossa tendo como cenário principal os morros da Urca e do Pão de Açucar.", "Endereco": " ", "Categoria": null }, "geometry": { "type": "Point", "coordinates": [ -43.164581899761849, -22.955280512952349 ] } },
{ "type": "Feature", "properties": { "OBJECTID": 206, "Nome": "Praia de Botafogo", "Descricao": "Possui 700 m de extensão e fica no fundo da enseada de Botafogo.", "Endereco": " ", "Categoria": null }, "geometry": { "type": "Point", "coordinates": [ -43.18045588695044, -22.945427241269204 ] } },
{ "type": "Feature", "properties": { "OBJECTID": 207, "Nome": "Parque Guinle", "Descricao": "Originalmente uma chácara e antiga casa do Dr. Eduardo Guinle. Hoje um grande parque. Na entrada do Parque, existe um grande portão que era da antiga propriedade. Rua Gago Coutinho - Laranjeiras.", "Endereco": " ", "Categoria": null }, "geometry": { "type": "Point", "coordinates": [ -43.183566031558676, -22.930657513517762 ] } },
{ "type": "Feature", "properties": { "OBJECTID": 208, "Nome": "Morro de Nova Cintra", "Descricao": "Elevação com paredão rochoso voltada para o bairro de Santa Teresa e Floresta voltada para o bairro das Laranjeiras - 262 m de altitude.", "Endereco": " ", "Categoria": null }, "geometry": { "type": "Point", "coordinates": [ -43.188013847440907, -22.926650099017007 ] } },
{ "type": "Feature", "properties": { "OBJECTID": 209, "Nome": "Túnel Santa Bárbara", "Descricao": "Túnel de ligação entre os Bairros de Laranjeiras e Catumbi.", "Endereco": " ", "Categoria": null }, "geometry": { "type": "Point", "coordinates": [ -43.190157304497035, -22.92555650179559 ] } },
{ "type": "Feature", "properties": { "OBJECTID": 210, "Nome": "Praça da Cruz Vermelha", "Descricao": "Praça localizada no Centro da cidade do Rio de Janeiro.", "Endereco": " ", "Categoria": null }, "geometry": { "type": "Point", "coordinates": [ -43.188225994040636, -22.911954855182888 ] } },
{ "type": "Feature", "properties": { "OBJECTID": 211, "Nome": "Catedral São Sebastião", "Descricao": "Uma das mais importantes Catedrais do Rio e localizada no Centro do Rio - Av. República do Chile.", "Endereco": " ", "Categoria": null }, "geometry": { "type": "Point", "coordinates": [ -43.180784543266711, -22.910996351968713 ] } },
{ "type": "Feature", "properties": { "OBJECTID": 212, "Nome": "Praça da República", "Descricao": "Criada em 1880 é composta pelo Campo de Santana (palco de acontecimentos históricos da cidade) - projeto paisagista Glaziou e possui 15,52 ha.", "Endereco": " ", "Categoria": null }, "geometry": { "type": "Point", "coordinates": [ -43.188538725281873, -22.906690249041478 ] } },
{ "type": "Feature", "properties": { "OBJECTID": 213, "Nome": "Central do Brasil", "Descricao": "Estação Dom Pedro II - Torre com relógio.", "Endereco": " ", "Categoria": null }, "geometry": { "type": "Point", "coordinates": [ -43.192518904947697, -22.903737794303051 ] } },
{ "type": "Feature", "properties": { "OBJECTID": 214, "Nome": "Morro da Providência", "Descricao": "A primeira Favela do Rio, seus primeiros moradores foram os militares da Guerra de Canudos.", "Endereco": " ", "Categoria": null }, "geometry": { "type": "Point", "coordinates": [ -43.1965613002887, -22.899876100565912 ] } },
{ "type": "Feature", "properties": { "OBJECTID": 215, "Nome": "Rodoviária Novo Rio", "Descricao": "Terminal de ônibus interestaduais e intermunicipais. Av. Francisco Bicalho, 01 - Santo Cristo - Tel. 2291-5151 - www.novorio.com.br", "Endereco": " ", "Categoria": null }, "geometry": { "type": "Point", "coordinates": [ -43.209173494024242, -22.899190567928667 ] } },
{ "type": "Feature", "properties": { "OBJECTID": 216, "Nome": "Ilha Pombeba", "Descricao": "Ilha desabitada em frente ao cais do porto.", "Endereco": " ", "Categoria": null }, "geometry": { "type": "Point", "coordinates": [ -43.208820640520052, -22.887708569659932 ] } },
{ "type": "Feature", "properties": { "OBJECTID": 217, "Nome": "Ilha de Santa Bárbara", "Descricao": "Ilha pequena defronte ao cais do porto - Baía de Guanabara.", "Endereco": " ", "Categoria": null }, "geometry": { "type": "Point", "coordinates": [ -43.196753148128373, -22.887630447298115 ] } },
{ "type": "Feature", "properties": { "OBJECTID": 218, "Nome": "Baía de Guanabara", "Descricao": "Ampla e bem abrigada, devido ao estreito espaço de sua barra, 1.600 metros, ladeados por dois morros que formam um baluarte natural de proteção: o Pão de Açúcar e o de Santa Cruz. A Baía está repleta de ilhas: a maior delas a do Governador com 32 Km2.", "Endereco": " ", "Categoria": null }, "geometry": { "type": "Point", "coordinates": [ -43.181569085278063, -22.876008908748517 ] } },
{ "type": "Feature", "properties": { "OBJECTID": 219, "Nome": "Ilha das Enxadas", "Descricao": "Ilha pertencente a Marinha e defornte a ilha das cobras - Baía de Guanabara.", "Endereco": " ", "Categoria": null }, "geometry": { "type": "Point", "coordinates": [ -43.174867661672458, -22.883469956148872 ] } },
{ "type": "Feature", "properties": { "OBJECTID": 220, "Nome": "Ilha das Cobras", "Descricao": "Ilha aterrada no seu perímetro, antiga fortaleza e atualmente pertencente a Marinha - Baía de Guanabara.", "Endereco": " ", "Categoria": null }, "geometry": { "type": "Point", "coordinates": [ -43.171822834493369, -22.896105464185066 ] } },
{ "type": "Feature", "properties": { "OBJECTID": 221, "Nome": "Ilha Fiscal", "Descricao": "Local onde foi realizado o último Baile do Império. Transporte até o local é feito por lancha. A saída é pelo cais do Espaço Cultural da Marinha na Praça Quinze - Centro. Telefone (21) 3870-6992.", "Endereco": " ", "Categoria": null }, "geometry": { "type": "Point", "coordinates": [ -43.16631011452634, -22.896911827337242 ] } },
{ "type": "Feature", "properties": { "OBJECTID": 222, "Nome": "Estação das Barcas", "Descricao": "Barcas e Catamarãs para Niterói e Paquetá na Praça XV de Novembro - Telebarcas: 2533-7524, 2532-6274.", "Endereco": " ", "Categoria": null }, "geometry": { "type": "Point", "coordinates": [ -43.172270822774841, -22.902540454861214 ] } },
{ "type": "Feature", "properties": { "OBJECTID": 223, "Nome": "Aeroporto Santos Dumont", "Descricao": "Aeroporto para vôos domésticos no Centro da Cidade. Praça Senador Salgado Filho. Telefone (21) 3814-7070", "Endereco": " ", "Categoria": null }, "geometry": { "type": "Point", "coordinates": [ -43.164405323897974, -22.910287198396446 ] } },
{ "type": "Feature", "properties": { "OBJECTID": 224, "Nome": "Ilha de Villegaignon", "Descricao": "Antiga ilha Serigipe ocupada pelo francês Villegagnon - atualmente abriga a Escola Naval.", "Endereco": " ", "Categoria": null }, "geometry": { "type": "Point", "coordinates": [ -43.159933145718256, -22.914356929427001 ] } },
{ "type": "Feature", "properties": { "OBJECTID": 225, "Nome": "Marina da Glória", "Descricao": "Possui Centro Comercial e é possível alugar barcos para passeios pela Baia de Guanabara, ilhas e contorno das montanhas. Av. Infante Dom Henrique, s\/n - Centro - Tel. 2205-6716.", "Endereco": " ", "Categoria": null }, "geometry": { "type": "Point", "coordinates": [ -43.171019132978238, -22.91710509317565 ] } },
{ "type": "Feature", "properties": { "OBJECTID": 226, "Nome": "MAM", "Descricao": "Museu de Arte Moderna - Localizado no Início do Aterro do Flamengo, próximo a Marina da Glória.", "Endereco": " ", "Categoria": null }, "geometry": { "type": "Point", "coordinates": [ -43.171833862783238, -22.913779940916623 ] } },
{ "type": "Feature", "properties": { "OBJECTID": 227, "Nome": "Parque do Flamengo", "Descricao": "Parque Brigadeiro Eduardo Gomes - mais extensa área de lazer da cidade - Paisagismo de Burle Marx inaugurado em 1964 - 121,9 ha de área.", "Endereco": " ", "Categoria": null }, "geometry": { "type": "Point", "coordinates": [ -43.169662104910088, -22.92134766887429 ] } },
{ "type": "Feature", "properties": { "OBJECTID": 228, "Nome": "Praia do Flamengo", "Descricao": "Estende-se por todo o Parque Brigadeiro Eduardo Gomes (Aterro do Flamengo) . O mar é calmo como em todas as praias de baía.", "Endereco": " ", "Categoria": null }, "geometry": { "type": "Point", "coordinates": [ -43.170322787308685, -22.928725570237265 ] } },
{ "type": "Feature", "properties": { "OBJECTID": 229, "Nome": "Centro Administrativo São Sebastião", "Descricao": "Sede da Prefeitura do Rio de Janeiro - Cidade Nova - Secretarias e Administrações Municipais.", "Endereco": " ", "Categoria": null }, "geometry": { "type": "Point", "coordinates": [ -43.2053407857819, -22.911420862753381 ] } },
{ "type": "Feature", "properties": { "OBJECTID": 230, "Nome": "Sambódromo", "Descricao": "Passarela do Samba onde as principais escolas de samba da cidade desfilam durante o Carnaval.", "Endereco": " ", "Categoria": null }, "geometry": { "type": "Point", "coordinates": [ -43.196299216466699, -22.913053881668191 ] } },
{ "type": "Feature", "properties": { "OBJECTID": 231, "Nome": "Morro Santos Rodrigues", "Descricao": "Favela e elevação situada entre Rio Comprido e Catumbi - cruzada por linhas de alta tensão - 244 m de altitude.", "Endereco": " ", "Categoria": null }, "geometry": { "type": "Point", "coordinates": [ -43.201233205898546, -22.919833092948739 ] } },
{ "type": "Feature", "properties": { "OBJECTID": 232, "Nome": "Morro dos Prazeres", "Descricao": "Favela e elevação entre o rio Comprido e Santa Teresa - acesso pela Rua Gomes Lopes - 273 m de altitude.", "Endereco": " ", "Categoria": null }, "geometry": { "type": "Point", "coordinates": [ -43.204078985812068, -22.933885298052811 ] } },
{ "type": "Feature", "properties": { "OBJECTID": 233, "Nome": "Túnel Rebouças", "Descricao": "Túnel de ligação entre a Zona Norte e Sul da cidade do Rio.", "Endereco": " ", "Categoria": null }, "geometry": { "type": "Point", "coordinates": [ -43.208801942614919, -22.935454830946703 ] } },
{ "type": "Feature", "properties": { "OBJECTID": 234, "Nome": "Morro do Salgueiro", "Descricao": "Favela e elevação na Tijuca, conhecido pela famosa Escola de Samba que leva o nome de Acadêmicos do Salgueiro.", "Endereco": " ", "Categoria": null }, "geometry": { "type": "Point", "coordinates": [ -43.219661152648612, -22.928585611882028 ] } },
{ "type": "Feature", "properties": { "OBJECTID": 235, "Nome": "Maracanã", "Descricao": "Estádio Jornalista Mário Filho - É considerado um monumento turístico, cultural e local muito procurado por Turistas. Aberto todos os dias,inclusive feriados, das 9 às 17 horas. Em dia de jogos, das 8 às 11 horas. Tel. (21) 2568-9962.", "Endereco": " ", "Categoria": null }, "geometry": { "type": "Point", "coordinates": [ -43.23018367102447, -22.912205509147718 ] } },
{ "type": "Feature", "properties": { "OBJECTID": 236, "Nome": "Quinta da Boa Vista", "Descricao": "Residência da Família Real Portuguesa durante todo o Império. Foi tombada em 1938. Possui grande jardim e abriga o Museu Nacional e o Jardim Zoológico do Rio de Janeiro.", "Endereco": " ", "Categoria": null }, "geometry": { "type": "Point", "coordinates": [ -43.225400336631651, -22.905598958348353 ] } },
{ "type": "Feature", "properties": { "OBJECTID": 237, "Nome": "Pavilhão de São Cristóvão", "Descricao": "Centro de Tradições Nordestinas com artigos, música e comidas típicas do nordeste Brasileiro. Campo de São Cristóvão. Telefone (21) 3860-9976.", "Endereco": " ", "Categoria": null }, "geometry": { "type": "Point", "coordinates": [ -43.220384945859756, -22.897513209466478 ] } },
{ "type": "Feature", "properties": { "OBJECTID": 238, "Nome": "Estádio São Januário", "Descricao": "Estádio de Futebol do Clube de Ragatas Vasco da Gama.", "Endereco": " ", "Categoria": null }, "geometry": { "type": "Point", "coordinates": [ -43.228251872179108, -22.890863311617373 ] } },
{ "type": "Feature", "properties": { "OBJECTID": 239, "Nome": "Museu do Amanhã", "Descricao": null, "Endereco": " ", "Categoria": null }, "geometry": { "type": "Point", "coordinates": [ -43.179304179040244, -22.894073040017723 ] } },
{ "type": "Feature", "properties": { "OBJECTID": 240, "Nome": "Cemitério São Francisco Xavier", "Descricao": "Cemitério localizado na Rua Manuel Gomes.", "Endereco": " ", "Categoria": null }, "geometry": { "type": "Point", "coordinates": [ -43.219160934138074, -22.892504518789867 ] } },
{ "type": "Feature", "properties": { "OBJECTID": 241, "Nome": "Parque Zoobotânico de Marapendi", "Descricao": "Localizado na Av. Alfredo Baltazar da Silveira - Recreio dos Bandeirantes. Aberto diariamente das 8h às 17h.", "Endereco": " ", "Categoria": null }, "geometry": { "type": "Point", "coordinates": [ -43.444187726784996, -23.014701451867975 ] } },
{ "type": "Feature", "properties": { "OBJECTID": 242, "Nome": "Barra Bali", "Descricao": "Condomínio de luxo localizado na Barra da Tijuca.", "Endereco": " ", "Categoria": null }, "geometry": { "type": "Point", "coordinates": [ -43.437771215772472, -23.009870214809556 ] } },
{ "type": "Feature", "properties": { "OBJECTID": 243, "Nome": "Pedra de Itaúna", "Descricao": "Elevação rochosa na restinga de Itapeba, próxima a Av. das Américas na Barra da Tijuca e cercada por condomínios - 54 m de altitude.", "Endereco": " ", "Categoria": null }, "geometry": { "type": "Point", "coordinates": [ -43.421436029803793, -23.003825555207012 ] } },
{ "type": "Feature", "properties": { "OBJECTID": 244, "Nome": "Morro do Amorim", "Descricao": "Elevação tombada na baixada de Jacarepaguá.", "Endereco": " ", "Categoria": null }, "geometry": { "type": "Point", "coordinates": [ -43.427399766796896, -22.994529941036067 ] } },
{ "type": "Feature", "properties": { "OBJECTID": 245, "Nome": "Conjunto Novo Horizonte", "Descricao": "Conjunto Habitacional de Baixa Renda onde seria polo de confecções - Estrada dos Bandeirantes.", "Endereco": " ", "Categoria": null }, "geometry": { "type": "Point", "coordinates": [ -43.432846007571143, -22.991035553463458 ] } },
{ "type": "Feature", "properties": { "OBJECTID": 246, "Nome": "Morro do Cantagalo", "Descricao": "Favela no morro do Pavão entre Ipanema e Copacabana - 200 m de altitude.", "Endereco": " ", "Categoria": null }, "geometry": { "type": "Point", "coordinates": [ -43.426141899899108, -22.989539149941301 ] } },
{ "type": "Feature", "properties": { "OBJECTID": 247, "Nome": "Lagoa de Jacarepaguá", "Descricao": "Complexo Lagunar da Baixada de Jacarepaguá.", "Endereco": " ", "Categoria": null }, "geometry": { "type": "Point", "coordinates": [ -43.39317961782394, -22.986125747258111 ] } },
{ "type": "Feature", "properties": { "OBJECTID": 248, "Nome": "Riocentro", "Descricao": "Centro de Convenções da Cidade do Rio de Janeiro onde acontecem várias feiras e congressos.", "Endereco": " ", "Categoria": null }, "geometry": { "type": "Point", "coordinates": [ -43.411889240179804, -22.977909953360268 ] } },
{ "type": "Feature", "properties": { "OBJECTID": 249, "Nome": "Pedra do Calembá", "Descricao": "Elevação do maciço da Pedra Branca com paredões rochosos, sendo devastada na sua encosta Norte por grande pedreira em Vargem Pequena - 319 m de altitude.", "Endereco": " ", "Categoria": null }, "geometry": { "type": "Point", "coordinates": [ -43.44896226444672, -22.989870149286332 ] } },
{ "type": "Feature", "properties": { "OBJECTID": 250, "Nome": "Morro do Portelo", "Descricao": "Elevação tombada na baixada de Jacarepaguá - circundada pela favela do Fontella - 56 m de altitude.", "Endereco": " ", "Categoria": null }, "geometry": { "type": "Point", "coordinates": [ -43.447881400408768, -22.996850413079283 ] } },
{ "type": "Feature", "properties": { "OBJECTID": 251, "Nome": "Morro do Urubu", "Descricao": "Favela e elevação Piedade - 177 m de altitude.", "Endereco": " ", "Categoria": null }, "geometry": { "type": "Point", "coordinates": [ -43.451292470435369, -23.001226607890953 ] } },
{ "type": "Feature", "properties": { "OBJECTID": 252, "Nome": "Canal do Cortado", "Descricao": "Favela em faixa contínua do Canal do Curtido.", "Endereco": " ", "Categoria": null }, "geometry": { "type": "Point", "coordinates": [ -43.469576093247383, -23.006886805061288 ] } },
{ "type": "Feature", "properties": { "OBJECTID": 253, "Nome": "Campos de Sernambetiba", "Descricao": "Vargem Grande - Áreas alagadas, sujeitas a inundações entre os canais de Sernambetiba, Purtelo e Curtado.", "Endereco": " ", "Categoria": null }, "geometry": { "type": "Point", "coordinates": [ -43.473038929835553, -23.001241166005901 ] } },
{ "type": "Feature", "properties": { "OBJECTID": 254, "Nome": "Morro do Bruno", "Descricao": "Elevação do Maciço da Pedra Branca em Vargem Grande - próxima ao parque 'Rio Water Planet' - 213 m de altitude.", "Endereco": " ", "Categoria": null }, "geometry": { "type": "Point", "coordinates": [ -43.479548585019813, -22.984008741143253 ] } },
{ "type": "Feature", "properties": { "OBJECTID": 255, "Nome": "Rio Water Planet", "Descricao": "Maior parque aquático da América Latina, com praia artificial, tobogãs, corredeiras e vasta área infantil. Área de 400.000 m2 cercada por florestas, aos pés do Maciço da Pedra Branca. Estrada dos Bandeirantes, 24.000 - Recreio dos Bandeirantes.", "Endereco": " ", "Categoria": null }, "geometry": { "type": "Point", "coordinates": [ -43.487454429012871, -22.980099070618692 ] } },
{ "type": "Feature", "properties": { "OBJECTID": 256, "Nome": "Canal do Portelo", "Descricao": "Vargem Grande e Vargem Pequena - Cruza os campos de Sernambetiba.", "Endereco": " ", "Categoria": null }, "geometry": { "type": "Point", "coordinates": [ -43.476397456439798, -22.99512760728329 ] } },
{ "type": "Feature", "properties": { "OBJECTID": 257, "Nome": "Morro do Rangel", "Descricao": "Elevação tombada pelo patrimônio, junto ao Camping Clube do Brasil e defronte a Praia da Macumba - Recreio - 163 m de altitude.", "Endereco": " ", "Categoria": null }, "geometry": { "type": "Point", "coordinates": [ -43.488512028189703, -23.029978831400189 ] } },
{ "type": "Feature", "properties": { "OBJECTID": 258, "Nome": "Mar a Mar", "Descricao": "Condomínio Residencial junto ao Canal de Sernambetiba - Final do Recreio dos Bandeirantes - Acesso pela Estrada do Pontal.", "Endereco": " ", "Categoria": null }, "geometry": { "type": "Point", "coordinates": [ -43.495820473108189, -23.026039521496852 ] } },
{ "type": "Feature", "properties": { "OBJECTID": 259, "Nome": "Recreio Shopping", "Descricao": "Shopping Center localizado na Av. das Américas, 19019 - Recreio dos Bandeirantes - Tel. 2490-4100 - Aberto diariamente das 8h às 18h.", "Endereco": " ", "Categoria": null }, "geometry": { "type": "Point", "coordinates": [ -43.488323470813633, -23.021216301671998 ] } },
{ "type": "Feature", "properties": { "OBJECTID": 260, "Nome": "Canal das Taxas", "Descricao": "Favela ao norte da Gleba Finch - ao longo do canal das Taxas - Recreio dos Bandeirantes.", "Endereco": " ", "Categoria": null }, "geometry": { "type": "Point", "coordinates": [ -43.488712398596391, -23.024589346501489 ] } },
{ "type": "Feature", "properties": { "OBJECTID": 261, "Nome": "Canal de Sernambetiba", "Descricao": "Vargem Grande \/ Recreio - drena a bacia dos rios Paineiras e Horto.", "Endereco": " ", "Categoria": null }, "geometry": { "type": "Point", "coordinates": [ -43.492801277656795, -23.026492314773211 ] } },
{ "type": "Feature", "properties": { "OBJECTID": 262, "Nome": "Parque Chico Mendes", "Descricao": "Parque em área de restinga, abrangendo a Lagoinha - criado em 1989 com área de 40 hectares.", "Endereco": " ", "Categoria": null }, "geometry": { "type": "Point", "coordinates": [ -43.471500363685436, -23.02269649289082 ] } },
{ "type": "Feature", "properties": { "OBJECTID": 263, "Nome": "Pontal de Sernambetiba ou Tim Maia", "Descricao": "Grande elevação rochosa em formato de penínssula - possui 120 m de altitude.", "Endereco": " ", "Categoria": null }, "geometry": { "type": "Point", "coordinates": [ -43.469983573384631, -23.035660456574394 ] } },
{ "type": "Feature", "properties": { "OBJECTID": 264, "Nome": "Praia da Macumba", "Descricao": "É uma enseada de 2 km de extensão localizada no final da Av. Sernambetiba.", "Endereco": " ", "Categoria": null }, "geometry": { "type": "Point", "coordinates": [ -43.487335755517805, -23.034125684862953 ] } },
{ "type": "Feature", "properties": { "OBJECTID": 265, "Nome": "Praia do Pontal", "Descricao": "Praia com 2,6 Km de extensão depois do Recreio dos Bandeirantes, na estrada do Pontal, próximo ao Camping. Ondas variando entre um e três metros.", "Endereco": " ", "Categoria": null }, "geometry": { "type": "Point", "coordinates": [ -43.475782871135308, -23.031580205935313 ] } },
{ "type": "Feature", "properties": { "OBJECTID": 266, "Nome": "Praia do Recreio dos Bandeirantes", "Descricao": "Enseada de 2 Km de extensão localizada no final da Av. Sernambetiba.", "Endereco": " ", "Categoria": null }, "geometry": { "type": "Point", "coordinates": [ -43.459672315103468, -23.027001790453237 ] } },
{ "type": "Feature", "properties": { "OBJECTID": 268, "Nome": "Aeroporto de Jacarepaguá", "Descricao": "Aeroporto para aviões de pequeno porte e helicópteros. Localizado na Barra da Tijuca, próximo ao Via Parque Shopping.", "Endereco": " ", "Categoria": null }, "geometry": { "type": "Point", "coordinates": [ -43.373535717723414, -22.986563202373699 ] } },
{ "type": "Feature", "properties": { "OBJECTID": 269, "Nome": "Casa Shopping", "Descricao": "Shopping Center localizado na Av. Ayrton Senna, 2150 - Barra da Tijuca - Tel. 2430-8000 - Aberto Seg. 12h-22h, Ter-Sab. 10h-22h e Dom. 15h-21h.", "Endereco": " ", "Categoria": null }, "geometry": { "type": "Point", "coordinates": [ -43.363619512986517, -22.991763720828615 ] } },
{ "type": "Feature", "properties": { "OBJECTID": 270, "Nome": "Barra Shopping", "Descricao": "Shopping Center aberto de Segunda a Sábado das 10 às 22 horas e Domingos das 15 às 21 horas - Av. das Américas, 4.666-Tel. (21) 3089-1000.", "Endereco": " ", "Categoria": null }, "geometry": { "type": "Point", "coordinates": [ -43.358078384736928, -22.997523623041541 ] } },
{ "type": "Feature", "properties": { "OBJECTID": 271, "Nome": "Nova Ipanema", "Descricao": "Condomínio de luxo localizado na Barra da Tijuca.", "Endereco": " ", "Categoria": null }, "geometry": { "type": "Point", "coordinates": [ -43.361922878456824, -23.002187818579145 ] } },
{ "type": "Feature", "properties": { "OBJECTID": 272, "Nome": "Jardim Marapendi", "Descricao": "Condomínio entre a lagoa de marapendi e praia da Barra da Tijuca.", "Endereco": " ", "Categoria": null }, "geometry": { "type": "Point", "coordinates": [ -43.353222519673615, -23.007865777712354 ] } },
{ "type": "Feature", "properties": { "OBJECTID": 273, "Nome": "Alfa Barra", "Descricao": "Condomínio de luxo localizado na Barra da Tijuca.", "Endereco": " ", "Categoria": null }, "geometry": { "type": "Point", "coordinates": [ -43.368914326612682, -23.009400836539339 ] } },
{ "type": "Feature", "properties": { "OBJECTID": 274, "Nome": "Lagoa de Marapendi", "Descricao": "Complexo Lagunar da Baixada de Jacarepaguá.", "Endereco": " ", "Categoria": null }, "geometry": { "type": "Point", "coordinates": [ -43.402537379798247, -23.011221790525493 ] } },
{ "type": "Feature", "properties": { "OBJECTID": 275, "Nome": "Malibu", "Descricao": "Condomíno Residencial entre a Lagoa de Marapendi e Av. das Américas na Barra da Tijuca.", "Endereco": " ", "Categoria": null }, "geometry": { "type": "Point", "coordinates": [ -43.397141309224843, -23.00430177795959 ] } },
{ "type": "Feature", "properties": { "OBJECTID": 276, "Nome": "Santa Mônica", "Descricao": "Condomínio de luxo localizado na Barra da Tijuca.", "Endereco": " ", "Categoria": null }, "geometry": { "type": "Point", "coordinates": [ -43.392314371207675, -22.998079201018399 ] } },
{ "type": "Feature", "properties": { "OBJECTID": 277, "Nome": "Novo Leblon", "Descricao": "Condomínio de luxo localizado na Barra da Tijuca.", "Endereco": " ", "Categoria": null }, "geometry": { "type": "Point", "coordinates": [ -43.381924676940727, -23.002977760161301 ] } },
{ "type": "Feature", "properties": { "OBJECTID": 278, "Nome": "Bosque da Barra", "Descricao": "Parque Público Arruda Câmara  - Barra da Tijuca.", "Endereco": " ", "Categoria": null }, "geometry": { "type": "Point", "coordinates": [ -43.371580270437732, -22.997727051056135 ] } },
{ "type": "Feature", "properties": { "OBJECTID": 279, "Nome": "Areal", "Descricao": "Setor Rio das Pedras - Jacarepaguá - Expansão em direção à lagoa da Tijuca.", "Endereco": " ", "Categoria": null }, "geometry": { "type": "Point", "coordinates": [ -43.338198222751124, -22.978049164296486 ] } },
{ "type": "Feature", "properties": { "OBJECTID": 280, "Nome": "Rio das Pedras", "Descricao": "Favela.", "Endereco": " ", "Categoria": null }, "geometry": { "type": "Point", "coordinates": [ -43.332803799341676, -22.974162925441821 ] } },
{ "type": "Feature", "properties": { "OBJECTID": 281, "Nome": "Pedra da Panela", "Descricao": "Elevação rochosa em formato arrendondado na baixada de Jacarepaguá, ao norte de Rio das pedras - 205 m de altitude.", "Endereco": " ", "Categoria": null }, "geometry": { "type": "Point", "coordinates": [ -43.343580197096109, -22.969589701577735 ] } },
{ "type": "Feature", "properties": { "OBJECTID": 282, "Nome": "Lagoa da Tijuca", "Descricao": "Complexo Lagunar da Baixada de Jacarepaguá.", "Endereco": " ", "Categoria": null }, "geometry": { "type": "Point", "coordinates": [ -43.334991263027597, -22.992710247101584 ] } },
{ "type": "Feature", "properties": { "OBJECTID": 283, "Nome": "Santa Helena", "Descricao": "Condomínio de luxo localizado na Barra da Tijuca.", "Endereco": " ", "Categoria": null }, "geometry": { "type": "Point", "coordinates": [ -43.333974069103199, -23.003803166283511 ] } },
{ "type": "Feature", "properties": { "OBJECTID": 284, "Nome": "Praia da Barra da Tijuca", "Descricao": "Estende-se ao longo da Av. Sernambetiba até o Recreio. É a maior praia da cidade e possui 15 km de extensão.", "Endereco": " ", "Categoria": null }, "geometry": { "type": "Point", "coordinates": [ -43.366368109889791, -23.011975058285493 ] } },
{ "type": "Feature", "properties": { "OBJECTID": 285, "Nome": "Condomínio Rio 2", "Descricao": "Conjunto de prédios ocupando grande área na Av. Embaixador Abelardo Bueno.", "Endereco": " ", "Categoria": null }, "geometry": { "type": "Point", "coordinates": [ -43.383535295117241, -22.971699660175197 ] } },
{ "type": "Feature", "properties": { "OBJECTID": 286, "Nome": "Cemitério Jardim da Saudade", "Descricao": "Cemitério localizado em Jardim Sulacap - Estrada do Engenho Velho.", "Endereco": " ", "Categoria": null }, "geometry": { "type": "Point", "coordinates": [ -43.638324509484832, -22.951771393572724 ] } },
{ "type": "Feature", "properties": { "OBJECTID": 287, "Nome": "Serra do Cantagalo", "Descricao": "Elevações contínuas a Serra de Inhoaíba em Guaratiba - 200 m de altitude.", "Endereco": " ", "Categoria": null }, "geometry": { "type": "Point", "coordinates": [ -43.629728450565814, -22.952768482184943 ] } },
{ "type": "Feature", "properties": { "OBJECTID": 288, "Nome": "Morro de Santa Eugênia", "Descricao": "Elevação da Serra de Santa Eugênia entre Jardim 7 de abril, cemitério Jardim da Saudade de Paciência e Vila Carioca - 277 m de altitude.", "Endereco": " ", "Categoria": null }, "geometry": { "type": "Point", "coordinates": [ -43.631701528840964, -22.940254529592778 ] } },
{ "type": "Feature", "properties": { "OBJECTID": 289, "Nome": "Jardim Sete de Abril", "Descricao": "Lotamento de baixa renda - um dos primeiros de Paciência - cruzado pela estrada de Santa Eugênia.", "Endereco": " ", "Categoria": null }, "geometry": { "type": "Point", "coordinates": [ -43.633557817330527, -22.930134520487083 ] } },
{ "type": "Feature", "properties": { "OBJECTID": 290, "Nome": "Três Pontes", "Descricao": "Favela junto ao Rio Casão Vermelho e Av. Cesáro de melo - entre os bairros de Santa Cruz e Paciência.", "Endereco": " ", "Categoria": null }, "geometry": { "type": "Point", "coordinates": [ -43.647636277091237, -22.925935498242733 ] } },
{ "type": "Feature", "properties": { "OBJECTID": 291, "Nome": "Conjunto Antares", "Descricao": "Conjunto Habitacional de Baixa Renda - Santa Cruz.", "Endereco": " ", "Categoria": null }, "geometry": { "type": "Point", "coordinates": [ -43.657562679735307, -22.921315227604687 ] } },
{ "type": "Feature", "properties": { "OBJECTID": 292, "Nome": "Conjunto Urucânia", "Descricao": "Conjunto Habitacional de Baixa Renda - Maestro Olímpio dos Santos - Paciência.", "Endereco": " ", "Categoria": null }, "geometry": { "type": "Point", "coordinates": [ -43.652893304182022, -22.91259372334298 ] } },
{ "type": "Feature", "properties": { "OBJECTID": 293, "Nome": "Indústria Vale Sul", "Descricao": "Indústria de alumínio de grande extensão - Paciência.", "Endereco": " ", "Categoria": null }, "geometry": { "type": "Point", "coordinates": [ -43.651860566197733, -22.900310453490793 ] } },
{ "type": "Feature", "properties": { "OBJECTID": 294, "Nome": "Conjunto Otacílio Camará", "Descricao": "Área chamada de Cesarão - enorme conjunto habitacional de Baixa Renda em Santa Cruz.", "Endereco": " ", "Categoria": null }, "geometry": { "type": "Point", "coordinates": [ -43.658888438360243, -22.936723015963981 ] } },
{ "type": "Feature", "properties": { "OBJECTID": 295, "Nome": "Curral Falso", "Descricao": "Localidade - Praça de Santa Cruz - Largo entre Estrada de Sepetiba e Estrada da Pedra.", "Endereco": " ", "Categoria": null }, "geometry": { "type": "Point", "coordinates": [ -43.665641450148328, -22.936648006173719 ] } },
{ "type": "Feature", "properties": { "OBJECTID": 296, "Nome": "Conjunto Santa Veridiana", "Descricao": "Conjunto Habitacional na Estrada Santa Veridiana - Santa Cruz.", "Endereco": " ", "Categoria": null }, "geometry": { "type": "Point", "coordinates": [ -43.66828980859124, -22.941460306808626 ] } },
{ "type": "Feature", "properties": { "OBJECTID": 297, "Nome": "Largo do Aarão", "Descricao": "Largo na junção da Estrada de Sepetiba com Areia Branca - Santa Cruz.", "Endereco": " ", "Categoria": null }, "geometry": { "type": "Point", "coordinates": [ -43.680801336035017, -22.9487829427154 ] } },
{ "type": "Feature", "properties": { "OBJECTID": 298, "Nome": "Matadouro", "Descricao": "Antigo matadouro de Santa Cruz - Tombado pelo patrimônio Histórico.", "Endereco": " ", "Categoria": null }, "geometry": { "type": "Point", "coordinates": [ -43.692848308349085, -22.924290488885127 ] } },
{ "type": "Feature", "properties": { "OBJECTID": 299, "Nome": "Morro do Mirante", "Descricao": "Elevação em Santa Cruz com reservatório e Mirante.", "Endereco": " ", "Categoria": null }, "geometry": { "type": "Point", "coordinates": [ -43.686748114069395, -22.922303495433081 ] } },
{ "type": "Feature", "properties": { "OBJECTID": 300, "Nome": "Centro Cultural Palacete de Santa Cruz", "Descricao": "Centro Cultural em Santa Cruz.", "Endereco": " ", "Categoria": null }, "geometry": { "type": "Point", "coordinates": [ -43.69276672067776, -22.922164215738476 ] } },
{ "type": "Feature", "properties": { "OBJECTID": 301, "Nome": "Cemitério de Santa Cruz", "Descricao": "Cemitério localizado entre a Rua da Verdade e Rua do Império em Santa Cruz.", "Endereco": " ", "Categoria": null }, "geometry": { "type": "Point", "coordinates": [ -43.691751697945563, -22.919888547333084 ] } },
{ "type": "Feature", "properties": { "OBJECTID": 302, "Nome": "Morro do Cafezal", "Descricao": "Elevação em Santa Cruz.", "Endereco": " ", "Categoria": null }, "geometry": { "type": "Point", "coordinates": [ -43.694176421614543, -22.933963431226768 ] } },
{ "type": "Feature", "properties": { "OBJECTID": 303, "Nome": "Campo de São José", "Descricao": "Base Aérea de Santa Cruz.", "Endereco": " ", "Categoria": null }, "geometry": { "type": "Point", "coordinates": [ -43.707985107345266, -22.936423123978496 ] } },
{ "type": "Feature", "properties": { "OBJECTID": 304, "Nome": "Base Aérea de Santa Cruz", "Descricao": "Área Militar sob controle da Aeronáutica - Campo Nero Moura - Aeroporo Bartolomeu de Gusmão.", "Endereco": " ", "Categoria": null }, "geometry": { "type": "Point", "coordinates": [ -43.714341982296212, -22.927841991211256 ] } },
{ "type": "Feature", "properties": { "OBJECTID": 305, "Nome": "Campo do Itongo", "Descricao": "Base Aérea de Santa Cruz.", "Endereco": " ", "Categoria": null }, "geometry": { "type": "Point", "coordinates": [ -43.706884431675761, -22.946901049653434 ] } },
{ "type": "Feature", "properties": { "OBJECTID": 306, "Nome": "Canal da Goiaba", "Descricao": "Base Aérea de Santa Cruz.", "Endereco": " ", "Categoria": null }, "geometry": { "type": "Point", "coordinates": [ -43.706463184180038, -22.940625586102183 ] } },
{ "type": "Feature", "properties": { "OBJECTID": 307, "Nome": "Canal do Pau Flexa", "Descricao": "Atravessa Santa Cruz e Sepetiba.", "Endereco": " ", "Categoria": null }, "geometry": { "type": "Point", "coordinates": [ -43.701405314188612, -22.952895931841383 ] } },
{ "type": "Feature", "properties": { "OBJECTID": 308, "Nome": "Conjunto João XXIII", "Descricao": "Conjunto Habitacional de Baixa Renda - Santa Cruz.", "Endereco": " ", "Categoria": null }, "geometry": { "type": "Point", "coordinates": [ -43.701414464615141, -22.90523741392057 ] } },
{ "type": "Feature", "properties": { "OBJECTID": 309, "Nome": "Canal do Itá", "Descricao": "Base Aérea de Santa Cruz.", "Endereco": " ", "Categoria": null }, "geometry": { "type": "Point", "coordinates": [ -43.711246307625736, -22.911736622417081 ] } },